[
  {
    "id": 3,
    "name": "Honiara International Airport",
    "lat": -9.428,
    "lon": 160.054993,
    "country": "SB",
    "municipality": "Honiara",
    "icao": "AGGH",
    "iata": "HIR"
  },
  {
    "id": 4,
    "name": "Munda Airport",
    "lat": -8.32797,
    "lon": 157.263,
    "country": "SB",
    "municipality": "Munda",
    "icao": "AGGM",
    "iata": "MUA"
  },
  {
    "id": 8,
    "name": "Nauru International Airport",
    "lat": -0.547458,
    "lon": 166.919006,
    "country": "NR",
    "municipality": "Yaren District",
    "icao": "ANYN",
    "iata": "INU"
  },
  {
    "id": 35179,
    "name": "Baimuru Airport",
    "lat": -7.496955,
    "lon": 144.821756,
    "country": "PG",
    "municipality": "Baimuru",
    "icao": "AYBA",
    "iata": "VMU"
  },
  {
    "id": 53,
    "name": "Buka Airport",
    "lat": -5.422299,
    "lon": 154.672698,
    "country": "PG",
    "municipality": "Buka Island",
    "icao": "AYBK",
    "iata": "BUA"
  },
  {
    "id": 35180,
    "name": "Balimo Airport",
    "lat": -8.050000191,
    "lon": 142.9329987,
    "country": "PG",
    "municipality": "Balimo",
    "icao": "AYBM",
    "iata": "OPU"
  },
  {
    "id": 54,
    "name": "Chimbu Airport",
    "lat": -6.024290085,
    "lon": 144.970993,
    "country": "PG",
    "municipality": "Kundiawa",
    "icao": "AYCH",
    "iata": "CMU"
  },
  {
    "id": 55,
    "name": "Daru Airport",
    "lat": -9.08676,
    "lon": 143.207993,
    "country": "PG",
    "municipality": "Daru",
    "icao": "AYDU",
    "iata": "DAU"
  },
  {
    "id": 56,
    "name": "Goroka Airport",
    "lat": -6.081689835,
    "lon": 145.3919983,
    "country": "PG",
    "municipality": "Goronka",
    "icao": "AYGA",
    "iata": "GKA"
  },
  {
    "id": 57,
    "name": "Gurney Airport",
    "lat": -10.3114996,
    "lon": 150.3339996,
    "country": "PG",
    "municipality": "Gurney",
    "icao": "AYGN",
    "iata": "GUR"
  },
  {
    "id": 58,
    "name": "Girua Airport",
    "lat": -8.80453968,
    "lon": 148.3090057,
    "country": "PG",
    "municipality": "Popondetta",
    "icao": "AYGR",
    "iata": "PNP"
  },
  {
    "id": 59,
    "name": "Hoskins Airport",
    "lat": -5.463846,
    "lon": 150.407327,
    "country": "PG",
    "municipality": "Kimbe",
    "icao": "AYHK",
    "iata": "HKN"
  },
  {
    "id": 60,
    "name": "Kerema Airport",
    "lat": -7.963610172,
    "lon": 145.7709961,
    "country": "PG",
    "municipality": "Kerema",
    "icao": "AYKM",
    "iata": "KMA"
  },
  {
    "id": 61,
    "name": "Kavieng Airport",
    "lat": -2.579400063,
    "lon": 150.8079987,
    "country": "PG",
    "municipality": "Kavieng",
    "icao": "AYKV",
    "iata": "KVG"
  },
  {
    "id": 62,
    "name": "Madang Airport",
    "lat": -5.207079887,
    "lon": 145.7890015,
    "country": "PG",
    "municipality": "Madang",
    "icao": "AYMD",
    "iata": "MAG"
  },
  {
    "id": 63,
    "name": "Mount Hagen Kagamuga Airport",
    "lat": -5.828212,
    "lon": 144.299412,
    "country": "PG",
    "municipality": "Mount Hagen",
    "icao": "AYMH",
    "iata": "HGU"
  },
  {
    "id": 64,
    "name": "Mendi Airport",
    "lat": -6.14774,
    "lon": 143.656998,
    "country": "PG",
    "municipality": "Mendi",
    "icao": "AYMN",
    "iata": "MDU"
  },
  {
    "id": 65,
    "name": "Momote Airport",
    "lat": -2.06189,
    "lon": 147.423996,
    "country": "PG",
    "municipality": "Manus Island",
    "icao": "AYMO",
    "iata": "MAS"
  },
  {
    "id": 66,
    "name": "Nadzab Airport",
    "lat": -6.569803,
    "lon": 146.725977,
    "country": "PG",
    "municipality": "Lae",
    "icao": "AYNZ",
    "iata": "LAE"
  },
  {
    "id": 67,
    "name": "Port Moresby Jacksons International Airport",
    "lat": -9.443380356,
    "lon": 147.2200012,
    "country": "PG",
    "municipality": "Port Moresby",
    "icao": "AYPY",
    "iata": "POM"
  },
  {
    "id": 68,
    "name": "Tokua Airport",
    "lat": -4.34046,
    "lon": 152.380005,
    "country": "PG",
    "municipality": "Kokopo",
    "icao": "AYTK",
    "iata": "RAB"
  },
  {
    "id": 69,
    "name": "Vanimo Airport",
    "lat": -2.6926,
    "lon": 141.3028,
    "country": "PG",
    "municipality": "Vanimo",
    "icao": "AYVN",
    "iata": "VAI"
  },
  {
    "id": 70,
    "name": "Wapenamanda Airport",
    "lat": -5.635293,
    "lon": 143.892231,
    "country": "PG",
    "municipality": "Wapenamanda",
    "icao": "AYWD",
    "iata": "WBM"
  },
  {
    "id": 71,
    "name": "Wewak International Airport",
    "lat": -3.583830118,
    "lon": 143.6690063,
    "country": "PG",
    "municipality": "Wewak",
    "icao": "AYWK",
    "iata": "WWK"
  },
  {
    "id": 31697,
    "name": "Aasiaat Airport",
    "lat": 68.721802,
    "lon": -52.784698,
    "country": "GL",
    "municipality": "Aasiaat",
    "icao": "BGAA",
    "iata": "JEG"
  },
  {
    "id": 113,
    "name": "Narsarsuaq Airport",
    "lat": 61.1605,
    "lon": -45.425999,
    "country": "GL",
    "municipality": "Narsarsuaq",
    "icao": "BGBW",
    "iata": "UAK"
  },
  {
    "id": 114,
    "name": "Nuuk Airport",
    "lat": 64.191066,
    "lon": -51.67914,
    "country": "GL",
    "municipality": "Nuuk",
    "icao": "BGGH",
    "iata": "GOH"
  },
  {
    "id": 31694,
    "name": "Ilulissat Airport",
    "lat": 69.243202,
    "lon": -51.057098,
    "country": "GL",
    "municipality": "Ilulissat",
    "icao": "BGJN",
    "iata": "JAV"
  },
  {
    "id": 31786,
    "name": "Kulusuk Airport",
    "lat": 65.573601,
    "lon": -37.1236,
    "country": "GL",
    "municipality": "Kulusuk",
    "icao": "BGKK",
    "iata": "KUS"
  },
  {
    "id": 115,
    "name": "Kangerlussuaq Airport",
    "lat": 67.010446,
    "lon": -50.715294,
    "country": "GL",
    "municipality": "Kangerlussuaq",
    "icao": "BGSF",
    "iata": "SFJ"
  },
  {
    "id": 31700,
    "name": "Sisimiut Airport",
    "lat": 66.951302,
    "lon": -53.729301,
    "country": "GL",
    "municipality": "Sisimiut",
    "icao": "BGSS",
    "iata": "JHS"
  },
  {
    "id": 116,
    "name": "Pituffik Space Base",
    "lat": 76.531197,
    "lon": -68.703201,
    "country": "GL",
    "municipality": "Pituffik",
    "icao": "BGTL",
    "iata": "THU"
  },
  {
    "id": 117,
    "name": "Akureyri Airport",
    "lat": 65.656573,
    "lon": -18.072018,
    "country": "IS",
    "municipality": "Akureyri",
    "icao": "BIAR",
    "iata": "AEY"
  },
  {
    "id": 119,
    "name": "Egilsstaðir Airport",
    "lat": 65.28330231,
    "lon": -14.40139961,
    "country": "IS",
    "municipality": "Egilsstaðir",
    "icao": "BIEG",
    "iata": "EGS"
  },
  {
    "id": 120,
    "name": "Hornafjörður Airport",
    "lat": 64.295601,
    "lon": -15.2272,
    "country": "IS",
    "municipality": "Höfn",
    "icao": "BIHN",
    "iata": "HFN"
  },
  {
    "id": 121,
    "name": "Húsavík Airport",
    "lat": 65.952301,
    "lon": -17.426001,
    "country": "IS",
    "municipality": "Húsavík",
    "icao": "BIHU",
    "iata": "HZK"
  },
  {
    "id": 122,
    "name": "Ísafjörður Airport",
    "lat": 66.058098,
    "lon": -23.1353,
    "country": "IS",
    "municipality": "Ísafjörður",
    "icao": "BIIS",
    "iata": "IFJ"
  },
  {
    "id": 123,
    "name": "Keflavik International Airport",
    "lat": 63.985001,
    "lon": -22.6056,
    "country": "IS",
    "municipality": "Reykjavík",
    "icao": "BIKF",
    "iata": "KEF"
  },
  {
    "id": 125,
    "name": "Reykjavík Domestic Airport",
    "lat": 64.128732,
    "lon": -21.93759,
    "country": "IS",
    "municipality": "Reykjavík",
    "icao": "BIRK",
    "iata": "RKV"
  },
  {
    "id": 126,
    "name": "Siglufjörður Airport",
    "lat": 66.137847,
    "lon": -18.908157,
    "country": "IS",
    "municipality": "Siglufjörður",
    "icao": "BISI",
    "iata": "SIJ"
  },
  {
    "id": 128,
    "name": "Vestmannaeyjar Airport",
    "lat": 63.42430115,
    "lon": -20.27890015,
    "country": "IS",
    "municipality": "Vestmannaeyjar",
    "icao": "BIVM",
    "iata": "VEY"
  },
  {
    "id": 4614,
    "name": "Priština Adem Jashari International Airport",
    "lat": 42.5728,
    "lon": 21.035801,
    "country": "XK",
    "municipality": "Prishtina",
    "icao": "BKPR",
    "iata": "PRN"
  },
  {
    "id": 664,
    "name": "Bella Bella (Campbell Island) Airport",
    "lat": 52.185001,
    "lon": -128.156994,
    "country": "CA",
    "municipality": "Bella Bella",
    "icao": "CBBC",
    "iata": "ZEL"
  },
  {
    "id": 1654,
    "name": "Fort Frances Municipal Airport",
    "lat": 48.655749,
    "lon": -93.44349,
    "country": "CA",
    "municipality": "Fort Frances",
    "icao": "CYAG",
    "iata": "YAG"
  },
  {
    "id": 1655,
    "name": "La Grande-4 Airport",
    "lat": 53.75469971,
    "lon": -73.6753006,
    "country": "CA",
    "municipality": "La Grande-4",
    "icao": "CYAH",
    "iata": "YAH"
  },
  {
    "id": 1657,
    "name": "Sault Ste Marie Airport",
    "lat": 46.483216,
    "lon": -84.508467,
    "country": "CA",
    "municipality": "Sault Ste Marie",
    "icao": "CYAM",
    "iata": "YAM"
  },
  {
    "id": 1658,
    "name": "Kasabonika Airport",
    "lat": 53.52470016,
    "lon": -88.64279938,
    "country": "CA",
    "municipality": "Kasabonika",
    "icao": "CYAQ",
    "iata": "XKS"
  },
  {
    "id": 1665,
    "name": "St. Anthony Airport",
    "lat": 51.391909,
    "lon": -56.08321,
    "country": "CA",
    "municipality": "St. Anthony",
    "icao": "CYAY",
    "iata": "YAY"
  },
  {
    "id": 1666,
    "name": "Tofino / Long Beach Airport",
    "lat": 49.079833,
    "lon": -125.775583,
    "country": "CA",
    "municipality": "Tofino",
    "icao": "CYAZ",
    "iata": "YAZ"
  },
  {
    "id": 1669,
    "name": "Baie-Comeau Airport",
    "lat": 49.1325,
    "lon": -68.204399,
    "country": "CA",
    "municipality": "Baie-Comeau",
    "icao": "CYBC",
    "iata": "YBC"
  },
  {
    "id": 1670,
    "name": "Bella Coola Airport",
    "lat": 52.387501,
    "lon": -126.596001,
    "country": "CA",
    "municipality": "Bella Coola",
    "icao": "CYBD",
    "iata": "QBC"
  },
  {
    "id": 1672,
    "name": "Bonnyville Airport",
    "lat": 54.304199,
    "lon": -110.744003,
    "country": "CA",
    "municipality": "Bonnyville",
    "icao": "CYBF",
    "iata": "YBY"
  },
  {
    "id": 1673,
    "name": "CFB Bagotville / Saguenay-Bagotville Airport",
    "lat": 48.331908,
    "lon": -70.992909,
    "country": "CA",
    "municipality": "La Baie",
    "icao": "CYBG",
    "iata": "YBG"
  },
  {
    "id": 1674,
    "name": "Baker Lake Airport",
    "lat": 64.29889679,
    "lon": -96.07779694,
    "country": "CA",
    "municipality": "Baker Lake",
    "icao": "CYBK",
    "iata": "YBK"
  },
  {
    "id": 1675,
    "name": "Campbell River Airport",
    "lat": 49.950802,
    "lon": -125.271004,
    "country": "CA",
    "municipality": "Campbell River",
    "icao": "CYBL",
    "iata": "YBL"
  },
  {
    "id": 1678,
    "name": "Brandon Municipal Airport",
    "lat": 49.91,
    "lon": -99.951897,
    "country": "CA",
    "municipality": "Brandon",
    "icao": "CYBR",
    "iata": "YBR"
  },
  {
    "id": 1683,
    "name": "Lourdes-de-Blanc-Sablon Airport",
    "lat": 51.4436,
    "lon": -57.185299,
    "country": "CA",
    "municipality": "Blanc-Sablon",
    "icao": "CYBX",
    "iata": "YBX"
  },
  {
    "id": 1685,
    "name": "Cambridge Bay Airport",
    "lat": 69.10810089,
    "lon": -105.1380005,
    "country": "CA",
    "municipality": "Cambridge Bay",
    "icao": "CYCB",
    "iata": "YCB"
  },
  {
    "id": 1686,
    "name": "Cornwall Regional Airport",
    "lat": 45.092637,
    "lon": -74.567724,
    "country": "CA",
    "municipality": "Cornwall",
    "icao": "CYCC",
    "iata": "YCC"
  },
  {
    "id": 1687,
    "name": "Nanaimo Airport",
    "lat": 49.05497,
    "lon": -123.869863,
    "country": "CA",
    "municipality": "Nanaimo",
    "icao": "CYCD",
    "iata": "YCD"
  },
  {
    "id": 1688,
    "name": "Centralia / James T. Field Memorial Aerodrome",
    "lat": 43.285599,
    "lon": -81.508301,
    "country": "CA",
    "municipality": "Huron Park",
    "icao": "CYCE",
    "iata": "YCE"
  },
  {
    "id": 1689,
    "name": "Castlegar/West Kootenay Regional Airport",
    "lat": 49.296398,
    "lon": -117.632004,
    "country": "CA",
    "municipality": "Castlegar",
    "icao": "CYCG",
    "iata": "YCG"
  },
  {
    "id": 1690,
    "name": "Miramichi Airport",
    "lat": 47.007801,
    "lon": -65.449203,
    "country": "CA",
    "municipality": "Miramichi",
    "icao": "CYCH",
    "iata": "YCH"
  },
  {
    "id": 1691,
    "name": "Charlo Airport",
    "lat": 47.990799,
    "lon": -66.330299,
    "country": "CA",
    "municipality": "Charlo",
    "icao": "CYCL",
    "iata": "YCL"
  },
  {
    "id": 1692,
    "name": "Cochrane Airport",
    "lat": 49.10559845,
    "lon": -81.01360321,
    "country": "CA",
    "municipality": "Cochrane",
    "icao": "CYCN",
    "iata": "YCN"
  },
  {
    "id": 1695,
    "name": "Chetwynd Airport",
    "lat": 55.68719864,
    "lon": -121.6269989,
    "country": "CA",
    "municipality": "Chetwynd",
    "icao": "CYCQ",
    "iata": "YCQ"
  },
  {
    "id": 1703,
    "name": "Dawson City Airport",
    "lat": 64.04309845,
    "lon": -139.128006,
    "country": "CA",
    "municipality": "Dawson City",
    "icao": "CYDA",
    "iata": "YDA"
  },
  {
    "id": 1704,
    "name": "Burwash Airport",
    "lat": 61.371101,
    "lon": -139.041,
    "country": "CA",
    "municipality": "Burwash Landing",
    "icao": "CYDB",
    "iata": "YDB"
  },
  {
    "id": 1706,
    "name": "Deer Lake Airport",
    "lat": 49.2108,
    "lon": -57.391399,
    "country": "CA",
    "municipality": "Deer Lake",
    "icao": "CYDF",
    "iata": "YDF"
  },
  {
    "id": 1709,
    "name": "Ross River Airport",
    "lat": 61.97060013,
    "lon": -132.4230042,
    "country": "CA",
    "municipality": "Ross River",
    "icao": "CYDM",
    "iata": "XRR"
  },
  {
    "id": 1710,
    "name": "Dauphin Barker Airport",
    "lat": 51.1008,
    "lon": -100.052002,
    "country": "CA",
    "municipality": "Dauphin",
    "icao": "CYDN",
    "iata": "YDN"
  },
  {
    "id": 1711,
    "name": "Dolbeau-Saint-Felicien Airport",
    "lat": 48.7785,
    "lon": -72.375,
    "country": "CA",
    "municipality": "Dolbeau-Saint-Felicien",
    "icao": "CYDO",
    "iata": "YDO"
  },
  {
    "id": 1713,
    "name": "Dawson Creek Airport",
    "lat": 55.741245,
    "lon": -120.183263,
    "country": "CA",
    "municipality": "Dawson Creek",
    "icao": "CYDQ",
    "iata": "YDQ"
  },
  {
    "id": 1717,
    "name": "Edmonton International Airport",
    "lat": 53.3097,
    "lon": -113.580002,
    "country": "CA",
    "municipality": "Edmonton",
    "icao": "CYEG",
    "iata": "YEG"
  },
  {
    "id": 1719,
    "name": "Elliot Lake Municipal Airport",
    "lat": 46.35139847,
    "lon": -82.56140137,
    "country": "CA",
    "municipality": "Elliot Lake",
    "icao": "CYEL",
    "iata": "YEL"
  },
  {
    "id": 1720,
    "name": "Manitoulin East Municipal Airport",
    "lat": 45.842435,
    "lon": -81.857595,
    "country": "CA",
    "municipality": "Sheguiandah",
    "icao": "CYEM",
    "iata": "YEM"
  },
  {
    "id": 1721,
    "name": "Estevan Airport",
    "lat": 49.21030045,
    "lon": -102.9660034,
    "country": "CA",
    "municipality": "Estevan",
    "icao": "CYEN",
    "iata": "YEN"
  },
  {
    "id": 1724,
    "name": "Edson Airport",
    "lat": 53.57889938,
    "lon": -116.4649963,
    "country": "CA",
    "municipality": "Edson",
    "icao": "CYET",
    "iata": "YET"
  },
  {
    "id": 1726,
    "name": "Inuvik Mike Zubko Airport",
    "lat": 68.30419922,
    "lon": -133.4830017,
    "country": "CA",
    "municipality": "Inuvik",
    "icao": "CYEV",
    "iata": "YEV"
  },
  {
    "id": 1727,
    "name": "Amos/Magny Airport",
    "lat": 48.563903,
    "lon": -78.249702,
    "country": "CA",
    "municipality": "Amos",
    "icao": "CYEY",
    "iata": "YEY"
  },
  {
    "id": 1729,
    "name": "Iqaluit Airport",
    "lat": 63.756402,
    "lon": -68.555801,
    "country": "CA",
    "municipality": "Iqaluit",
    "icao": "CYFB",
    "iata": "YFB"
  },
  {
    "id": 1730,
    "name": "Fredericton Airport",
    "lat": 45.8689003,
    "lon": -66.53720093,
    "country": "CA",
    "municipality": "Fredericton",
    "icao": "CYFC",
    "iata": "YFC"
  },
  {
    "id": 1732,
    "name": "Forestville Airport",
    "lat": 48.74610138,
    "lon": -69.09719849,
    "country": "CA",
    "municipality": "Forestville",
    "icao": "CYFE",
    "iata": "YFE"
  },
  {
    "id": 1734,
    "name": "Mont-Tremblant International Airport",
    "lat": 46.409401,
    "lon": -74.779999,
    "country": "CA",
    "municipality": "La Macaza",
    "icao": "CYFJ",
    "iata": "YTM"
  },
  {
    "id": 1736,
    "name": "Fort Resolution Airport",
    "lat": 61.18080139,
    "lon": -113.6900024,
    "country": "CA",
    "municipality": "Fort Resolution",
    "icao": "CYFR",
    "iata": "YFR"
  },
  {
    "id": 1737,
    "name": "Fort Simpson Airport",
    "lat": 61.7602005,
    "lon": -121.2369995,
    "country": "CA",
    "municipality": "Fort Simpson",
    "icao": "CYFS",
    "iata": "YFS"
  },
  {
    "id": 1743,
    "name": "Kingston Norman Rogers Airport",
    "lat": 44.2253,
    "lon": -76.596901,
    "country": "CA",
    "municipality": "Kingston",
    "icao": "CYGK",
    "iata": "YGK"
  },
  {
    "id": 1744,
    "name": "La Grande Rivière Airport",
    "lat": 53.62530136,
    "lon": -77.70420074,
    "country": "CA",
    "municipality": "La Grande Rivière",
    "icao": "CYGL",
    "iata": "YGL"
  },
  {
    "id": 1745,
    "name": "Gimli Industrial Park Airport",
    "lat": 50.62810135,
    "lon": -97.04329681,
    "country": "CA",
    "municipality": "Gimli",
    "icao": "CYGM",
    "iata": "YGM"
  },
  {
    "id": 1747,
    "name": "Michel-Pouliot Gaspé Airport",
    "lat": 48.774915,
    "lon": -64.481893,
    "country": "CA",
    "municipality": "Gaspé",
    "icao": "CYGP",
    "iata": "YGP"
  },
  {
    "id": 1748,
    "name": "Geraldton Greenstone Regional Airport",
    "lat": 49.77830124,
    "lon": -86.93939972,
    "country": "CA",
    "municipality": "Geraldton",
    "icao": "CYGQ",
    "iata": "YGQ"
  },
  {
    "id": 1749,
    "name": "Îles-de-la-Madeleine Airport",
    "lat": 47.425242,
    "lon": -61.778612,
    "country": "CA",
    "municipality": "Les Îles-de-la-Madeleine",
    "icao": "CYGR",
    "iata": "YGR"
  },
  {
    "id": 1751,
    "name": "Havre-Saint-Pierre Airport",
    "lat": 50.281898,
    "lon": -63.611401,
    "country": "CA",
    "municipality": "Havre-Saint-Pierre",
    "icao": "CYGV",
    "iata": "YGV"
  },
  {
    "id": 1752,
    "name": "Kuujjuarapik Airport",
    "lat": 55.2818985,
    "lon": -77.76529694,
    "country": "CA",
    "municipality": "Kuujjuarapik",
    "icao": "CYGW",
    "iata": "YGW"
  },
  {
    "id": 1757,
    "name": "Dryden Regional Airport",
    "lat": 49.831699,
    "lon": -92.744202,
    "country": "CA",
    "municipality": "Dryden",
    "icao": "CYHD",
    "iata": "YHD"
  },
  {
    "id": 1759,
    "name": "Hearst René Fontaine Municipal Airport",
    "lat": 49.71419907,
    "lon": -83.68609619,
    "country": "CA",
    "municipality": "Hearst",
    "icao": "CYHF",
    "iata": "YHF"
  },
  {
    "id": 1763,
    "name": "John C. Munro Hamilton International Airport",
    "lat": 43.17359924,
    "lon": -79.93499756,
    "country": "CA",
    "municipality": "Hamilton",
    "icao": "CYHM",
    "iata": "YHM"
  },
  {
    "id": 1764,
    "name": "Hornepayne Municipal Airport",
    "lat": 49.19309998,
    "lon": -84.7589035,
    "country": "CA",
    "municipality": "Hornepayne",
    "icao": "CYHN",
    "iata": "YHN"
  },
  {
    "id": 1767,
    "name": "Haines Junction Airport",
    "lat": 60.7892,
    "lon": -137.546005,
    "country": "CA",
    "municipality": "Haines Junction",
    "icao": "CYHT",
    "iata": "YHT"
  },
  {
    "id": 1768,
    "name": "Montréal / Saint-Hubert Metropolitan Airport",
    "lat": 45.517502,
    "lon": -73.416901,
    "country": "CA",
    "municipality": "Montréal",
    "icao": "CYHU",
    "iata": "YHU"
  },
  {
    "id": 1769,
    "name": "Hay River / Merlyn Carter Airport",
    "lat": 60.83969879,
    "lon": -115.7829971,
    "country": "CA",
    "municipality": "Hay River",
    "icao": "CYHY",
    "iata": "YHY"
  },
  {
    "id": 1770,
    "name": "Halifax / Stanfield International Airport",
    "lat": 44.88079834,
    "lon": -63.50859833,
    "country": "CA",
    "municipality": "Halifax",
    "icao": "CYHZ",
    "iata": "YHZ"
  },
  {
    "id": 1771,
    "name": "Atikokan Municipal Airport",
    "lat": 48.773899,
    "lon": -91.638603,
    "country": "CA",
    "municipality": "Atikokan",
    "icao": "CYIB",
    "iata": "YIB"
  },
  {
    "id": 1772,
    "name": "Digby / Annapolis Regional Airport",
    "lat": 44.54584504,
    "lon": -65.78542471,
    "country": "CA",
    "municipality": "Digby",
    "icao": "CYID",
    "iata": "YDG"
  },
  {
    "id": 1773,
    "name": "St Augustin Airport",
    "lat": 51.2117,
    "lon": -58.658298,
    "country": "CA",
    "municipality": "St-Augustin",
    "icao": "CYIF",
    "iata": "YIF"
  },
  {
    "id": 1776,
    "name": "Island Lake Airport",
    "lat": 53.85720062,
    "lon": -94.6536026,
    "country": "CA",
    "municipality": "Island Lake",
    "icao": "CYIV",
    "iata": "YIV"
  },
  {
    "id": 1778,
    "name": "Fort Liard Airport",
    "lat": 60.2358017,
    "lon": -123.4690018,
    "country": "CA",
    "municipality": "Fort Liard",
    "icao": "CYJF",
    "iata": "YJF"
  },
  {
    "id": 1780,
    "name": "St Jean Airport",
    "lat": 45.29439926,
    "lon": -73.28109741,
    "country": "CA",
    "municipality": "St Jean",
    "icao": "CYJN",
    "iata": "YJN"
  },
  {
    "id": 1783,
    "name": "Dymond Airport",
    "lat": 48.544201,
    "lon": -58.549999,
    "country": "CA",
    "municipality": "Stephenville",
    "icao": "CYJT",
    "iata": "YJT"
  },
  {
    "id": 1784,
    "name": "Kamloops John Moose Fulton Field Regional Airport",
    "lat": 50.703038,
    "lon": -120.448641,
    "country": "CA",
    "municipality": "Kamloops",
    "icao": "CYKA",
    "iata": "YKA"
  },
  {
    "id": 1787,
    "name": "Region of Waterloo International Airport",
    "lat": 43.4608,
    "lon": -80.378601,
    "country": "CA",
    "municipality": "Breslau",
    "icao": "CYKF",
    "iata": "YKF"
  },
  {
    "id": 1789,
    "name": "Key Lake Airport",
    "lat": 57.2560997,
    "lon": -105.6179962,
    "country": "CA",
    "municipality": "Key Lake",
    "icao": "CYKJ",
    "iata": "YKJ"
  },
  {
    "id": 1790,
    "name": "Schefferville Airport",
    "lat": 54.80530167,
    "lon": -66.80529785,
    "country": "CA",
    "municipality": "Schefferville",
    "icao": "CYKL",
    "iata": "YKL"
  },
  {
    "id": 1340,
    "name": "Kincardine Municipal Airport",
    "lat": 44.201401,
    "lon": -81.606697,
    "country": "CA",
    "municipality": "Kincardine",
    "icao": "CYKM",
    "iata": "YKD"
  },
  {
    "id": 1793,
    "name": "Kirkland Lake Airport",
    "lat": 48.21030045,
    "lon": -79.98139954,
    "country": "CA",
    "municipality": "Kirkland Lake",
    "icao": "CYKX",
    "iata": "YKX"
  },
  {
    "id": 1794,
    "name": "Kindersley Airport",
    "lat": 51.51750183,
    "lon": -109.1809998,
    "country": "CA",
    "municipality": "Kindersley",
    "icao": "CYKY",
    "iata": "YKY"
  },
  {
    "id": 1799,
    "name": "Chapleau Airport",
    "lat": 47.81999969,
    "lon": -83.34670258,
    "country": "CA",
    "municipality": "Chapleau",
    "icao": "CYLD",
    "iata": "YLD"
  },
  {
    "id": 1801,
    "name": "Meadow Lake Airport",
    "lat": 54.12530136,
    "lon": -108.5230026,
    "country": "CA",
    "municipality": "Meadow Lake",
    "icao": "CYLJ",
    "iata": "YLJ"
  },
  {
    "id": 1803,
    "name": "Lloydminster Airport",
    "lat": 53.3092,
    "lon": -110.072998,
    "country": "CA",
    "municipality": "Lloydminster",
    "icao": "CYLL",
    "iata": "YLL"
  },
  {
    "id": 1805,
    "name": "Leaf Rapids Airport",
    "lat": 56.51330185,
    "lon": -99.98529816,
    "country": "CA",
    "municipality": "Leaf Rapids",
    "icao": "CYLR",
    "iata": "YLR"
  },
  {
    "id": 1293,
    "name": "Barrie-Lake Simcoe Regional Airport",
    "lat": 44.485056,
    "lon": -79.554663,
    "country": "CA",
    "municipality": "Barrie",
    "icao": "CYLS",
    "iata": "YLK"
  },
  {
    "id": 1806,
    "name": "Alert Airport",
    "lat": 82.517799,
    "lon": -62.280602,
    "country": "CA",
    "municipality": "Alert",
    "icao": "CYLT",
    "iata": "YLT"
  },
  {
    "id": 1808,
    "name": "Kelowna International Airport",
    "lat": 49.9561,
    "lon": -119.377998,
    "country": "CA",
    "municipality": "Kelowna",
    "icao": "CYLW",
    "iata": "YLW"
  },
  {
    "id": 1809,
    "name": "Mayo Airport",
    "lat": 63.61640167,
    "lon": -135.8679962,
    "country": "CA",
    "municipality": "Mayo",
    "icao": "CYMA",
    "iata": "YMA"
  },
  {
    "id": 1810,
    "name": "Matane Airport",
    "lat": 48.85689926,
    "lon": -67.45330048,
    "country": "CA",
    "municipality": "Matane",
    "icao": "CYME",
    "iata": "YME"
  },
  {
    "id": 1811,
    "name": "Manitouwadge Airport",
    "lat": 49.08390045,
    "lon": -85.86060333,
    "country": "CA",
    "municipality": "Manitouwadge",
    "icao": "CYMG",
    "iata": "YMG"
  },
  {
    "id": 1813,
    "name": "Moose Jaw Air Vice Marshal C. M. McEwen Airport",
    "lat": 50.33029938,
    "lon": -105.5589981,
    "country": "CA",
    "municipality": "Moose Jaw",
    "icao": "CYMJ",
    "iata": "YMJ"
  },
  {
    "id": 1814,
    "name": "Charlevoix Airport",
    "lat": 47.59749985,
    "lon": -70.22389984,
    "country": "CA",
    "municipality": "Charlevoix",
    "icao": "CYML",
    "iata": "YML"
  },
  {
    "id": 1815,
    "name": "Fort McMurray Airport",
    "lat": 56.65330124,
    "lon": -111.2220001,
    "country": "CA",
    "municipality": "Fort McMurray",
    "icao": "CYMM",
    "iata": "YMM"
  },
  {
    "id": 1816,
    "name": "Moosonee Airport",
    "lat": 51.29109955,
    "lon": -80.60780334,
    "country": "CA",
    "municipality": "Moosonee",
    "icao": "CYMO",
    "iata": "YMO"
  },
  {
    "id": 1817,
    "name": "Chapais Airport",
    "lat": 49.77190018,
    "lon": -74.52809906,
    "country": "CA",
    "municipality": "Chibougamau",
    "icao": "CYMT",
    "iata": "YMT"
  },
  {
    "id": 1820,
    "name": "Montreal International (Mirabel) Airport",
    "lat": 45.679501,
    "lon": -74.038696,
    "country": "CA",
    "municipality": "Montréal",
    "icao": "CYMX",
    "iata": "YMX"
  },
  {
    "id": 1822,
    "name": "Natashquan Airport",
    "lat": 50.190114,
    "lon": -61.78898,
    "country": "CA",
    "municipality": "Natashquan",
    "icao": "CYNA",
    "iata": "YNA"
  },
  {
    "id": 1824,
    "name": "Ottawa / Gatineau Airport",
    "lat": 45.521702,
    "lon": -75.563599,
    "country": "CA",
    "municipality": "Gatineau",
    "icao": "CYND",
    "iata": "YND"
  },
  {
    "id": 1827,
    "name": "Langley Airport",
    "lat": 49.1008,
    "lon": -122.630997,
    "country": "CA",
    "municipality": "Langley",
    "icao": "CYNJ",
    "iata": "YLY"
  },
  {
    "id": 1828,
    "name": "Points North Landing Airport",
    "lat": 58.27669907,
    "lon": -104.0820007,
    "country": "CA",
    "municipality": "Points North Landing",
    "icao": "CYNL",
    "iata": "YNL"
  },
  {
    "id": 1829,
    "name": "Matagami Airport",
    "lat": 49.76169968,
    "lon": -77.80280304,
    "country": "CA",
    "municipality": "Matagami",
    "icao": "CYNM",
    "iata": "YNM"
  },
  {
    "id": 1832,
    "name": "Ekati Airport",
    "lat": 64.69889832,
    "lon": -110.6149979,
    "country": "CA",
    "municipality": "Ekati",
    "icao": "CYOA",
    "iata": "YOA"
  },
  {
    "id": 1834,
    "name": "CFB Cold Lake",
    "lat": 54.40499878,
    "lon": -110.2789993,
    "country": "CA",
    "municipality": "Cold Lake",
    "icao": "CYOD",
    "iata": "YOD"
  },
  {
    "id": 1836,
    "name": "High Level Airport",
    "lat": 58.62139893,
    "lon": -117.1650009,
    "country": "CA",
    "municipality": "High Level",
    "icao": "CYOJ",
    "iata": "YOJ"
  },
  {
    "id": 1837,
    "name": "Oshawa Executive Airport",
    "lat": 43.922798,
    "lon": -78.894997,
    "country": "CA",
    "municipality": "Oshawa",
    "icao": "CYOO",
    "iata": "YOO"
  },
  {
    "id": 1838,
    "name": "Rainbow Lake Airport",
    "lat": 58.491402,
    "lon": -119.407997,
    "country": "CA",
    "municipality": "Rainbow Lake",
    "icao": "CYOP",
    "iata": "YOP"
  },
  {
    "id": 1839,
    "name": "Owen Sound / Billy Bishop Regional Airport",
    "lat": 44.59030151,
    "lon": -80.83750153,
    "country": "CA",
    "municipality": "Owen Sound",
    "icao": "CYOS",
    "iata": "YOS"
  },
  {
    "id": 1840,
    "name": "Ottawa Macdonald-Cartier International Airport",
    "lat": 45.322498,
    "lon": -75.669197,
    "country": "CA",
    "municipality": "Ottawa",
    "icao": "CYOW",
    "iata": "YOW"
  },
  {
    "id": 1842,
    "name": "Prince Albert Glass Field",
    "lat": 53.21419907,
    "lon": -105.6729965,
    "country": "CA",
    "municipality": "Prince Albert",
    "icao": "CYPA",
    "iata": "YPA"
  },
  {
    "id": 1844,
    "name": "Port Hawkesbury Airport",
    "lat": 45.65670013,
    "lon": -61.36809921,
    "country": "CA",
    "municipality": "Port Hawkesbury",
    "icao": "CYPD",
    "iata": "YPS"
  },
  {
    "id": 1845,
    "name": "Peace River Airport",
    "lat": 56.226898,
    "lon": -117.446999,
    "country": "CA",
    "municipality": "Peace River",
    "icao": "CYPE",
    "iata": "YPE"
  },
  {
    "id": 1846,
    "name": "Portage-la-Prairie / Southport Airport",
    "lat": 49.903099,
    "lon": -98.273817,
    "country": "CA",
    "municipality": "Portage la Prairie",
    "icao": "CYPG",
    "iata": "YPG"
  },
  {
    "id": 1849,
    "name": "Pickle Lake Airport",
    "lat": 51.44639969,
    "lon": -90.21420288,
    "country": "CA",
    "municipality": "Pickle Lake",
    "icao": "CYPL",
    "iata": "YPL"
  },
  {
    "id": 1851,
    "name": "Port-Menier Airport",
    "lat": 49.836399,
    "lon": -64.288597,
    "country": "CA",
    "municipality": "Port-Menier",
    "icao": "CYPN",
    "iata": "YPN"
  },
  {
    "id": 1854,
    "name": "Peterborough Municipal Airport",
    "lat": 44.23,
    "lon": -78.363297,
    "country": "CA",
    "municipality": "Peterborough",
    "icao": "CYPQ",
    "iata": "YPQ"
  },
  {
    "id": 1855,
    "name": "Prince Rupert Airport",
    "lat": 54.28609848,
    "lon": -130.4450073,
    "country": "CA",
    "municipality": "Prince Rupert",
    "icao": "CYPR",
    "iata": "YPR"
  },
  {
    "id": 1859,
    "name": "Powell River Airport",
    "lat": 49.83420181,
    "lon": -124.5,
    "country": "CA",
    "municipality": "Powell River",
    "icao": "CYPW",
    "iata": "YPW"
  },
  {
    "id": 1860,
    "name": "Puvirnituq Airport",
    "lat": 60.050598,
    "lon": -77.286903,
    "country": "CA",
    "municipality": "Puvirnituq",
    "icao": "CYPX",
    "iata": "YPX"
  },
  {
    "id": 1861,
    "name": "Fort Chipewyan Airport",
    "lat": 58.76720047,
    "lon": -111.1169968,
    "country": "CA",
    "municipality": "Fort Chipewyan",
    "icao": "CYPY",
    "iata": "YPY"
  },
  {
    "id": 1862,
    "name": "Burns Lake Airport",
    "lat": 54.3764,
    "lon": -125.950996,
    "country": "CA",
    "municipality": "Burns Lake",
    "icao": "CYPZ",
    "iata": "YPZ"
  },
  {
    "id": 1863,
    "name": "Muskoka Airport",
    "lat": 44.975376,
    "lon": -79.306546,
    "country": "CA",
    "municipality": "Gravenhurst",
    "icao": "CYQA",
    "iata": "YQA"
  },
  {
    "id": 1864,
    "name": "Quebec Jean Lesage International Airport",
    "lat": 46.7911,
    "lon": -71.393303,
    "country": "CA",
    "municipality": "Quebec",
    "icao": "CYQB",
    "iata": "YQB"
  },
  {
    "id": 1865,
    "name": "The Pas Airport",
    "lat": 53.97140121,
    "lon": -101.0910034,
    "country": "CA",
    "municipality": "The Pas",
    "icao": "CYQD",
    "iata": "YQD"
  },
  {
    "id": 1866,
    "name": "Red Deer Regional Airport",
    "lat": 52.182201,
    "lon": -113.893997,
    "country": "CA",
    "municipality": "Springbrook",
    "icao": "CYQF",
    "iata": "YQF"
  },
  {
    "id": 1867,
    "name": "Windsor Airport",
    "lat": 42.27560043,
    "lon": -82.95559692,
    "country": "CA",
    "municipality": "Windsor",
    "icao": "CYQG",
    "iata": "YQG"
  },
  {
    "id": 1868,
    "name": "Watson Lake Airport",
    "lat": 60.116839,
    "lon": -128.821993,
    "country": "CA",
    "municipality": "Watson Lake",
    "icao": "CYQH",
    "iata": "YQH"
  },
  {
    "id": 1869,
    "name": "Yarmouth Airport",
    "lat": 43.82690048,
    "lon": -66.08809662,
    "country": "CA",
    "municipality": "Yarmouth",
    "icao": "CYQI",
    "iata": "YQI"
  },
  {
    "id": 1870,
    "name": "Kenora Airport",
    "lat": 49.78829956,
    "lon": -94.36309814,
    "country": "CA",
    "municipality": "Kenora",
    "icao": "CYQK",
    "iata": "YQK"
  },
  {
    "id": 1871,
    "name": "Lethbridge County Airport",
    "lat": 49.63029861,
    "lon": -112.8000031,
    "country": "CA",
    "municipality": "Lethbridge",
    "icao": "CYQL",
    "iata": "YQL"
  },
  {
    "id": 1872,
    "name": "Greater Moncton Roméo LeBlanc International Airport",
    "lat": 46.112202,
    "lon": -64.678596,
    "country": "CA",
    "municipality": "Moncton",
    "icao": "CYQM",
    "iata": "YQM"
  },
  {
    "id": 1873,
    "name": "Nakina Airport",
    "lat": 50.18280029,
    "lon": -86.6964035,
    "country": "CA",
    "municipality": "Nakina",
    "icao": "CYQN",
    "iata": "YQN"
  },
  {
    "id": 1874,
    "name": "Comox Valley Airport / CFB Comox",
    "lat": 49.7108,
    "lon": -124.887001,
    "country": "CA",
    "municipality": "Comox",
    "icao": "CYQQ",
    "iata": "YQQ"
  },
  {
    "id": 1875,
    "name": "Regina International Airport",
    "lat": 50.43190002,
    "lon": -104.6660004,
    "country": "CA",
    "municipality": "Regina",
    "icao": "CYQR",
    "iata": "YQR"
  },
  {
    "id": 1876,
    "name": "St Thomas Municipal Airport",
    "lat": 42.77000046,
    "lon": -81.1108017,
    "country": "CA",
    "municipality": "St Thomas",
    "icao": "CYQS",
    "iata": "YQS"
  },
  {
    "id": 1877,
    "name": "Thunder Bay Airport",
    "lat": 48.37189865,
    "lon": -89.32389832,
    "country": "CA",
    "municipality": "Thunder Bay",
    "icao": "CYQT",
    "iata": "YQT"
  },
  {
    "id": 1878,
    "name": "Grande Prairie Airport",
    "lat": 55.17969894,
    "lon": -118.8850021,
    "country": "CA",
    "municipality": "Grande Prairie",
    "icao": "CYQU",
    "iata": "YQU"
  },
  {
    "id": 1879,
    "name": "Yorkton Municipal Airport",
    "lat": 51.26470184,
    "lon": -102.461998,
    "country": "CA",
    "municipality": "Yorkton",
    "icao": "CYQV",
    "iata": "YQV"
  },
  {
    "id": 1880,
    "name": "North Battleford Airport",
    "lat": 52.769409,
    "lon": -108.243742,
    "country": "CA",
    "municipality": "North Battleford",
    "icao": "CYQW",
    "iata": "YQW"
  },
  {
    "id": 1881,
    "name": "Gander International Airport / CFB Gander",
    "lat": 48.936258,
    "lon": -54.567719,
    "country": "CA",
    "municipality": "Gander",
    "icao": "CYQX",
    "iata": "YQX"
  },
  {
    "id": 1882,
    "name": "Sydney / J.A. Douglas McCurdy Airport",
    "lat": 46.1614,
    "lon": -60.047798,
    "country": "CA",
    "municipality": "Sydney",
    "icao": "CYQY",
    "iata": "YQY"
  },
  {
    "id": 1883,
    "name": "Quesnel Airport",
    "lat": 53.02610016,
    "lon": -122.5100021,
    "country": "CA",
    "municipality": "Quesnel",
    "icao": "CYQZ",
    "iata": "YQZ"
  },
  {
    "id": 1885,
    "name": "Resolute Bay Airport",
    "lat": 74.71690369,
    "lon": -94.9693985,
    "country": "CA",
    "municipality": "Resolute Bay",
    "icao": "CYRB",
    "iata": "YRB"
  },
  {
    "id": 1887,
    "name": "Rivière-du-Loup Airport",
    "lat": 47.76440048,
    "lon": -69.58470154,
    "country": "CA",
    "municipality": "Rivière-du-Loup",
    "icao": "CYRI",
    "iata": "YRI"
  },
  {
    "id": 1888,
    "name": "Roberval Airport",
    "lat": 48.519665,
    "lon": -72.265735,
    "country": "CA",
    "municipality": "Roberval",
    "icao": "CYRJ",
    "iata": "YRJ"
  },
  {
    "id": 1889,
    "name": "Red Lake Airport",
    "lat": 51.06689835,
    "lon": -93.79309845,
    "country": "CA",
    "municipality": "Red Lake",
    "icao": "CYRL",
    "iata": "YRL"
  },
  {
    "id": 1891,
    "name": "Ottawa / Rockcliffe Airport",
    "lat": 45.46030045,
    "lon": -75.64610291,
    "country": "CA",
    "municipality": "Ottawa",
    "icao": "CYRO",
    "iata": "YRO"
  },
  {
    "id": 1893,
    "name": "Trois-Rivières Airport",
    "lat": 46.35279846,
    "lon": -72.67939758,
    "country": "CA",
    "municipality": "Trois-Rivières",
    "icao": "CYRQ",
    "iata": "YRQ"
  },
  {
    "id": 1895,
    "name": "Rankin Inlet Airport",
    "lat": 62.81140137,
    "lon": -92.11579895,
    "country": "CA",
    "municipality": "Rankin Inlet",
    "icao": "CYRT",
    "iata": "YRT"
  },
  {
    "id": 1896,
    "name": "Revelstoke Airport",
    "lat": 50.962245,
    "lon": -118.184258,
    "country": "CA",
    "municipality": "Revelstoke",
    "icao": "CYRV",
    "iata": "YRV"
  },
  {
    "id": 1897,
    "name": "Sudbury Airport",
    "lat": 46.625,
    "lon": -80.79889679,
    "country": "CA",
    "municipality": "Sudbury",
    "icao": "CYSB",
    "iata": "YSB"
  },
  {
    "id": 1898,
    "name": "Sherbrooke Airport",
    "lat": 45.438599,
    "lon": -71.691399,
    "country": "CA",
    "municipality": "Sherbrooke",
    "icao": "CYSC",
    "iata": "YSC"
  },
  {
    "id": 1901,
    "name": "Stony Rapids Airport",
    "lat": 59.25030136,
    "lon": -105.8410034,
    "country": "CA",
    "municipality": "Stony Rapids",
    "icao": "CYSF",
    "iata": "YSF"
  },
  {
    "id": 1903,
    "name": "Smiths Falls-Montague (Russ Beach) Airport",
    "lat": 44.945801,
    "lon": -75.940598,
    "country": "CA",
    "municipality": "Smiths Falls",
    "icao": "CYSH",
    "iata": "YSH"
  },
  {
    "id": 1904,
    "name": "Saint John Airport",
    "lat": 45.31610107,
    "lon": -65.89029694,
    "country": "CA",
    "municipality": "Saint John",
    "icao": "CYSJ",
    "iata": "YSJ"
  },
  {
    "id": 1906,
    "name": "Saint-Léonard Airport",
    "lat": 47.157097,
    "lon": -67.836242,
    "country": "CA",
    "municipality": "Saint-Léonard",
    "icao": "CYSL",
    "iata": "YSL"
  },
  {
    "id": 1907,
    "name": "Fort Smith Airport",
    "lat": 60.020302,
    "lon": -111.961998,
    "country": "CA",
    "municipality": "Fort Smith",
    "icao": "CYSM",
    "iata": "YSM"
  },
  {
    "id": 1908,
    "name": "Niagara District Airport",
    "lat": 43.191598,
    "lon": -79.171686,
    "country": "CA",
    "municipality": "Niagara-on-the-Lake",
    "icao": "CYSN",
    "iata": "YCM"
  },
  {
    "id": 1909,
    "name": "Marathon Airport",
    "lat": 48.75529861,
    "lon": -86.3443985,
    "country": "CA",
    "municipality": "Marathon",
    "icao": "CYSP",
    "iata": "YSP"
  },
  {
    "id": 1913,
    "name": "Summerside Airport",
    "lat": 46.440601,
    "lon": -63.833599,
    "country": "CA",
    "municipality": "Slemon Park",
    "icao": "CYSU",
    "iata": "YSU"
  },
  {
    "id": 1917,
    "name": "Pembroke Airport",
    "lat": 45.86439896,
    "lon": -77.25170135,
    "country": "CA",
    "municipality": "Pembroke",
    "icao": "CYTA",
    "iata": "YTA"
  },
  {
    "id": 1919,
    "name": "Alma Airport",
    "lat": 48.5089,
    "lon": -71.641899,
    "country": "CA",
    "municipality": "Alma",
    "icao": "CYTF",
    "iata": "YTF"
  },
  {
    "id": 1920,
    "name": "Thompson Airport",
    "lat": 55.80110168,
    "lon": -97.86419678,
    "country": "CA",
    "municipality": "Thompson",
    "icao": "CYTH",
    "iata": "YTH"
  },
  {
    "id": 1924,
    "name": "CFB Trenton",
    "lat": 44.1189003,
    "lon": -77.52809906,
    "country": "CA",
    "municipality": "Trenton",
    "icao": "CYTR",
    "iata": "YTR"
  },
  {
    "id": 1925,
    "name": "Timmins/Victor M. Power",
    "lat": 48.56969833,
    "lon": -81.37670136,
    "country": "CA",
    "municipality": "Timmins",
    "icao": "CYTS",
    "iata": "YTS"
  },
  {
    "id": 1926,
    "name": "Billy Bishop Toronto City Centre Airport",
    "lat": 43.627499,
    "lon": -79.396202,
    "country": "CA",
    "municipality": "Toronto",
    "icao": "CYTZ",
    "iata": "YTZ"
  },
  {
    "id": 1928,
    "name": "Montreal / Pierre Elliott Trudeau International Airport",
    "lat": 45.467837,
    "lon": -73.742294,
    "country": "CA",
    "municipality": "Montréal",
    "icao": "CYUL",
    "iata": "YUL"
  },
  {
    "id": 1930,
    "name": "Hall Beach Airport",
    "lat": 68.7761,
    "lon": -81.2425,
    "country": "CA",
    "municipality": "Sanirajak",
    "icao": "CYUX",
    "iata": "YUX"
  },
  {
    "id": 1931,
    "name": "Rouyn Noranda Airport",
    "lat": 48.20610046,
    "lon": -78.83560181,
    "country": "CA",
    "municipality": "Rouyn-Noranda",
    "icao": "CYUY",
    "iata": "YUY"
  },
  {
    "id": 1932,
    "name": "Bonaventure Airport",
    "lat": 48.071098,
    "lon": -65.460297,
    "country": "CA",
    "municipality": "Bonaventure",
    "icao": "CYVB",
    "iata": "YVB"
  },
  {
    "id": 1933,
    "name": "La Ronge Airport",
    "lat": 55.15140152,
    "lon": -105.262001,
    "country": "CA",
    "municipality": "La Ronge",
    "icao": "CYVC",
    "iata": "YVC"
  },
  {
    "id": 1936,
    "name": "Vernon Regional Airport",
    "lat": 50.246163,
    "lon": -119.330963,
    "country": "CA",
    "municipality": "Vernon",
    "icao": "CYVK",
    "iata": "YVE"
  },
  {
    "id": 1938,
    "name": "Val-d'Or Airport",
    "lat": 48.05329895,
    "lon": -77.78279877,
    "country": "CA",
    "municipality": "Val-d'Or",
    "icao": "CYVO",
    "iata": "YVO"
  },
  {
    "id": 1939,
    "name": "Kuujjuaq Airport",
    "lat": 58.09609985,
    "lon": -68.42690277,
    "country": "CA",
    "municipality": "Kuujjuaq",
    "icao": "CYVP",
    "iata": "YVP"
  },
  {
    "id": 1940,
    "name": "Norman Wells Airport",
    "lat": 65.28160095,
    "lon": -126.7979965,
    "country": "CA",
    "municipality": "Norman Wells",
    "icao": "CYVQ",
    "iata": "YVQ"
  },
  {
    "id": 1941,
    "name": "Vancouver International Airport",
    "lat": 49.19390106,
    "lon": -123.1839981,
    "country": "CA",
    "municipality": "Vancouver",
    "icao": "CYVR",
    "iata": "YVR"
  },
  {
    "id": 1943,
    "name": "Wiarton Airport",
    "lat": 44.7458,
    "lon": -81.107201,
    "country": "CA",
    "municipality": "Wiarton",
    "icao": "CYVV",
    "iata": "YVV"
  },
  {
    "id": 1946,
    "name": "Winnipeg / James Armstrong Richardson International Airport",
    "lat": 49.90999985,
    "lon": -97.23989868,
    "country": "CA",
    "municipality": "Winnipeg",
    "icao": "CYWG",
    "iata": "YWG"
  },
  {
    "id": 1949,
    "name": "Wabush Airport",
    "lat": 52.9219017,
    "lon": -66.86440277,
    "country": "CA",
    "municipality": "Wabush",
    "icao": "CYWK",
    "iata": "YWK"
  },
  {
    "id": 1950,
    "name": "Williams Lake Airport",
    "lat": 52.18310165,
    "lon": -122.0540009,
    "country": "CA",
    "municipality": "Williams Lake",
    "icao": "CYWL",
    "iata": "YWL"
  },
  {
    "id": 1954,
    "name": "Wrigley Airport",
    "lat": 63.20940018,
    "lon": -123.4369965,
    "country": "CA",
    "municipality": "Wrigley",
    "icao": "CYWY",
    "iata": "YWY"
  },
  {
    "id": 1955,
    "name": "Cranbrook/Canadian Rockies International Airport",
    "lat": 49.6108017,
    "lon": -115.7819977,
    "country": "CA",
    "municipality": "Cranbrook",
    "icao": "CYXC",
    "iata": "YXC"
  },
  {
    "id": 1957,
    "name": "Saskatoon John G. Diefenbaker International Airport",
    "lat": 52.17079926,
    "lon": -106.6999969,
    "country": "CA",
    "municipality": "Saskatoon",
    "icao": "CYXE",
    "iata": "YXE"
  },
  {
    "id": 1958,
    "name": "Medicine Hat Regional Airport",
    "lat": 50.018902,
    "lon": -110.721001,
    "country": "CA",
    "municipality": "Medicine Hat",
    "icao": "CYXH",
    "iata": "YXH"
  },
  {
    "id": 1959,
    "name": "Fort St John / North Peace Regional Airport",
    "lat": 56.238098,
    "lon": -120.739998,
    "country": "CA",
    "municipality": "Fort Saint John",
    "icao": "CYXJ",
    "iata": "YXJ"
  },
  {
    "id": 1960,
    "name": "Rimouski Airport",
    "lat": 48.477644,
    "lon": -68.496323,
    "country": "CA",
    "municipality": "Rimouski",
    "icao": "CYXK",
    "iata": "YXK"
  },
  {
    "id": 1961,
    "name": "Sioux Lookout Airport",
    "lat": 50.11389923,
    "lon": -91.90529633,
    "country": "CA",
    "municipality": "Sioux Lookout",
    "icao": "CYXL",
    "iata": "YXL"
  },
  {
    "id": 1964,
    "name": "Beaver Creek Airport",
    "lat": 62.41030121,
    "lon": -140.8670044,
    "country": "CA",
    "municipality": "Beaver Creek",
    "icao": "CYXQ",
    "iata": "YXQ"
  },
  {
    "id": 1965,
    "name": "Earlton (Timiskaming Regional) Airport",
    "lat": 47.69740065,
    "lon": -79.84734535,
    "country": "CA",
    "municipality": "Earlton",
    "icao": "CYXR",
    "iata": "YXR"
  },
  {
    "id": 1966,
    "name": "Prince George Airport",
    "lat": 53.884311,
    "lon": -122.666554,
    "country": "CA",
    "municipality": "Prince George",
    "icao": "CYXS",
    "iata": "YXS"
  },
  {
    "id": 1967,
    "name": "Northwest Regional Airport Terrace-Kitimat",
    "lat": 54.468498,
    "lon": -128.576009,
    "country": "CA",
    "municipality": "Terrace",
    "icao": "CYXT",
    "iata": "YXT"
  },
  {
    "id": 1968,
    "name": "London Airport",
    "lat": 43.035599,
    "lon": -81.1539,
    "country": "CA",
    "municipality": "London",
    "icao": "CYXU",
    "iata": "YXU"
  },
  {
    "id": 1969,
    "name": "Abbotsford International Airport",
    "lat": 49.025299,
    "lon": -122.361,
    "country": "CA",
    "municipality": "Abbotsford",
    "icao": "CYXX",
    "iata": "YXX"
  },
  {
    "id": 1970,
    "name": "Whitehorse / Erik Nielsen International Airport",
    "lat": 60.709599,
    "lon": -135.067001,
    "country": "CA",
    "municipality": "Whitehorse",
    "icao": "CYXY",
    "iata": "YXY"
  },
  {
    "id": 1971,
    "name": "Wawa Airport",
    "lat": 47.96670151,
    "lon": -84.78669739,
    "country": "CA",
    "municipality": "Wawa",
    "icao": "CYXZ",
    "iata": "YXZ"
  },
  {
    "id": 1972,
    "name": "North Bay Jack Garland Airport",
    "lat": 46.363602,
    "lon": -79.422798,
    "country": "CA",
    "municipality": "North Bay",
    "icao": "CYYB",
    "iata": "YYB"
  },
  {
    "id": 1973,
    "name": "Calgary International Airport",
    "lat": 51.118822,
    "lon": -114.009933,
    "country": "CA",
    "municipality": "Calgary",
    "icao": "CYYC",
    "iata": "YYC"
  },
  {
    "id": 1974,
    "name": "Smithers Airport",
    "lat": 54.8246994,
    "lon": -127.1829987,
    "country": "CA",
    "municipality": "Smithers",
    "icao": "CYYD",
    "iata": "YYD"
  },
  {
    "id": 1975,
    "name": "Fort Nelson Airport",
    "lat": 58.83639908,
    "lon": -122.5970001,
    "country": "CA",
    "municipality": "Fort Nelson",
    "icao": "CYYE",
    "iata": "YYE"
  },
  {
    "id": 1976,
    "name": "Penticton Airport",
    "lat": 49.46310043,
    "lon": -119.6019974,
    "country": "CA",
    "municipality": "Penticton",
    "icao": "CYYF",
    "iata": "YYF"
  },
  {
    "id": 1977,
    "name": "Charlottetown Airport",
    "lat": 46.29000092,
    "lon": -63.12110138,
    "country": "CA",
    "municipality": "Charlottetown",
    "icao": "CYYG",
    "iata": "YYG"
  },
  {
    "id": 1979,
    "name": "Victoria International Airport",
    "lat": 48.647201,
    "lon": -123.427792,
    "country": "CA",
    "municipality": "Victoria",
    "icao": "CYYJ",
    "iata": "YYJ"
  },
  {
    "id": 1980,
    "name": "Lynn Lake Airport",
    "lat": 56.86389923,
    "lon": -101.0759964,
    "country": "CA",
    "municipality": "Lynn Lake",
    "icao": "CYYL",
    "iata": "YYL"
  },
  {
    "id": 1982,
    "name": "Swift Current Airport",
    "lat": 50.29190063,
    "lon": -107.6910019,
    "country": "CA",
    "municipality": "Swift Current",
    "icao": "CYYN",
    "iata": "YYN"
  },
  {
    "id": 1984,
    "name": "Churchill Airport",
    "lat": 58.73920059,
    "lon": -94.06500244,
    "country": "CA",
    "municipality": "Churchill",
    "icao": "CYYQ",
    "iata": "YYQ"
  },
  {
    "id": 1985,
    "name": "Goose Bay Airport",
    "lat": 53.31919861,
    "lon": -60.42580032,
    "country": "CA",
    "municipality": "Goose Bay",
    "icao": "CYYR",
    "iata": "YYR"
  },
  {
    "id": 1986,
    "name": "St. John's International Airport",
    "lat": 47.618599,
    "lon": -52.7519,
    "country": "CA",
    "municipality": "St. John's",
    "icao": "CYYT",
    "iata": "YYT"
  },
  {
    "id": 1987,
    "name": "Kapuskasing Airport",
    "lat": 49.411587,
    "lon": -82.469645,
    "country": "CA",
    "municipality": "Kapuskasing",
    "icao": "CYYU",
    "iata": "YYU"
  },
  {
    "id": 1988,
    "name": "Armstrong Airport",
    "lat": 50.29029846,
    "lon": -88.90969849,
    "country": "CA",
    "municipality": "Armstrong",
    "icao": "CYYW",
    "iata": "YYW"
  },
  {
    "id": 1989,
    "name": "Mont Joli Airport",
    "lat": 48.60860062,
    "lon": -68.20809937,
    "country": "CA",
    "municipality": "Mont-Joli",
    "icao": "CYYY",
    "iata": "YYY"
  },
  {
    "id": 1990,
    "name": "Toronto Lester B. Pearson International Airport",
    "lat": 43.6772,
    "lon": -79.6306,
    "country": "CA",
    "municipality": "Toronto",
    "icao": "CYYZ",
    "iata": "YYZ"
  },
  {
    "id": 1992,
    "name": "Gore Bay Manitoulin Airport",
    "lat": 45.8853,
    "lon": -82.567802,
    "country": "CA",
    "municipality": "Gore Bay",
    "icao": "CYZE",
    "iata": "YZE"
  },
  {
    "id": 1993,
    "name": "Yellowknife International Airport",
    "lat": 62.462799,
    "lon": -114.440002,
    "country": "CA",
    "municipality": "Yellowknife",
    "icao": "CYZF",
    "iata": "YZF"
  },
  {
    "id": 1995,
    "name": "Slave Lake Airport",
    "lat": 55.292945,
    "lon": -114.777276,
    "country": "CA",
    "municipality": "Slave Lake",
    "icao": "CYZH",
    "iata": "YZH"
  },
  {
    "id": 1996,
    "name": "Sandspit Airport",
    "lat": 53.25429916,
    "lon": -131.8139954,
    "country": "CA",
    "municipality": "Sandspit",
    "icao": "CYZP",
    "iata": "YZP"
  },
  {
    "id": 1997,
    "name": "Chris Hadfield Airport",
    "lat": 42.999401,
    "lon": -82.308899,
    "country": "CA",
    "municipality": "Sarnia",
    "icao": "CYZR",
    "iata": "YZR"
  },
  {
    "id": 1998,
    "name": "Coral Harbour Airport",
    "lat": 64.19329834,
    "lon": -83.35939789,
    "country": "CA",
    "municipality": "Coral Harbour",
    "icao": "CYZS",
    "iata": "YZS"
  },
  {
    "id": 1999,
    "name": "Port Hardy Airport",
    "lat": 50.68059921,
    "lon": -127.3669968,
    "country": "CA",
    "municipality": "Port Hardy",
    "icao": "CYZT",
    "iata": "YZT"
  },
  {
    "id": 2000,
    "name": "Whitecourt Airport",
    "lat": 54.143902,
    "lon": -115.787003,
    "country": "CA",
    "municipality": "Whitecourt",
    "icao": "CYZU",
    "iata": "YZU"
  },
  {
    "id": 2001,
    "name": "Sept-Îles Airport",
    "lat": 50.22330093,
    "lon": -66.26560211,
    "country": "CA",
    "municipality": "Sept-Îles",
    "icao": "CYZV",
    "iata": "YZV"
  },
  {
    "id": 2002,
    "name": "Teslin Airport",
    "lat": 60.17279816,
    "lon": -132.7429962,
    "country": "CA",
    "municipality": "Teslin",
    "icao": "CYZW",
    "iata": "YZW"
  },
  {
    "id": 2003,
    "name": "CFB Greenwood",
    "lat": 44.9844017,
    "lon": -64.91690063,
    "country": "CA",
    "municipality": "Greenwood",
    "icao": "CYZX",
    "iata": "YZX"
  },
  {
    "id": 2006,
    "name": "Shuswap Regional Airport",
    "lat": 50.682802,
    "lon": -119.228996,
    "country": "CA",
    "municipality": "Salmon Arm",
    "icao": "CZAM",
    "iata": "YSN"
  },
  {
    "id": 2008,
    "name": "Boundary Bay Airport",
    "lat": 49.0742,
    "lon": -123.012001,
    "country": "CA",
    "municipality": "Delta",
    "icao": "CZBB",
    "iata": "YDT"
  },
  {
    "id": 2010,
    "name": "Bathurst Airport",
    "lat": 47.6297,
    "lon": -65.738899,
    "country": "CA",
    "municipality": "South Tetagouche",
    "icao": "CZBF",
    "iata": "ZBF"
  },
  {
    "id": 2011,
    "name": "Bromont (Roland Désourdy) Airport",
    "lat": 45.290798,
    "lon": -72.741402,
    "country": "CA",
    "municipality": "Bromont",
    "icao": "CZBM",
    "iata": "ZBM"
  },
  {
    "id": 2012,
    "name": "Kelsey Airport",
    "lat": 56.03749847,
    "lon": -96.50969696,
    "country": "CA",
    "municipality": "Kelsey",
    "icao": "CZEE",
    "iata": "KES"
  },
  {
    "id": 2014,
    "name": "Faro Airport",
    "lat": 62.20750046,
    "lon": -133.3760071,
    "country": "CA",
    "municipality": "Faro",
    "icao": "CZFA",
    "iata": "ZFA"
  },
  {
    "id": 2019,
    "name": "Grand Forks Airport",
    "lat": 49.015598,
    "lon": -118.431,
    "country": "CA",
    "municipality": "Grand Forks",
    "icao": "CZGF",
    "iata": "ZGF"
  },
  {
    "id": 2023,
    "name": "Jenpeg Airport",
    "lat": 54.51890182,
    "lon": -98.0460968,
    "country": "CA",
    "municipality": "Jenpeg",
    "icao": "CZJG",
    "iata": "ZJG"
  },
  {
    "id": 2024,
    "name": "Swan River Airport",
    "lat": 52.120602,
    "lon": -101.236,
    "country": "CA",
    "municipality": "Swan River",
    "icao": "CZJN",
    "iata": "ZJN"
  },
  {
    "id": 2026,
    "name": "Thicket Portage Airport",
    "lat": 55.31890106,
    "lon": -97.70780182,
    "country": "CA",
    "municipality": "Thicket Portage",
    "icao": "CZLQ",
    "iata": "YTD"
  },
  {
    "id": 2029,
    "name": "Pikwitonei Airport",
    "lat": 55.58890152,
    "lon": -97.16419983,
    "country": "CA",
    "municipality": "Pikwitonei",
    "icao": "CZMN",
    "iata": "PIW"
  },
  {
    "id": 2030,
    "name": "Masset Airport",
    "lat": 54.0275,
    "lon": -132.125,
    "country": "CA",
    "municipality": "Masset",
    "icao": "CZMT",
    "iata": "ZMT"
  },
  {
    "id": 2034,
    "name": "Pincher Creek Airport",
    "lat": 49.520429,
    "lon": -113.997002,
    "country": "CA",
    "municipality": "Pincher Creek",
    "icao": "CZPC",
    "iata": "WPC"
  },
  {
    "id": 2037,
    "name": "Sandy Lake Airport",
    "lat": 53.06420135,
    "lon": -93.3443985,
    "country": "CA",
    "municipality": "Sandy Lake",
    "icao": "CZSJ",
    "iata": "ZSJ"
  },
  {
    "id": 2039,
    "name": "Stewart Airport",
    "lat": 55.93541045,
    "lon": -129.9824345,
    "country": "CA",
    "municipality": "Stewart",
    "icao": "CZST",
    "iata": "ZST"
  },
  {
    "id": 2042,
    "name": "Ignace Municipal Airport",
    "lat": 49.428204,
    "lon": -91.720418,
    "country": "CA",
    "municipality": "Ignace",
    "icao": "CZUC",
    "iata": "ZUC"
  },
  {
    "id": 2048,
    "name": "Bou Saada Airport",
    "lat": 35.3325,
    "lon": 4.20639,
    "country": "DZ",
    "municipality": "Ouled Sidi Brahim",
    "icao": "DAAD",
    "iata": "BUJ"
  },
  {
    "id": 2049,
    "name": "Soummam–Abane Ramdane Airport",
    "lat": 36.711952,
    "lon": 5.069804,
    "country": "DZ",
    "municipality": "Béjaïa",
    "icao": "DAAE",
    "iata": "BJA"
  },
  {
    "id": 2050,
    "name": "Houari Boumediene Airport",
    "lat": 36.693886,
    "lon": 3.214531,
    "country": "DZ",
    "municipality": "Algiers",
    "icao": "DAAG",
    "iata": "ALG"
  },
  {
    "id": 2051,
    "name": "Djanet Inedbirene Airport",
    "lat": 24.292801,
    "lon": 9.45244,
    "country": "DZ",
    "municipality": "Djanet",
    "icao": "DAAJ",
    "iata": "DJG"
  },
  {
    "id": 2054,
    "name": "Illizi Takhamalt Airport",
    "lat": 26.723499,
    "lon": 8.62265,
    "country": "DZ",
    "municipality": "Illizi",
    "icao": "DAAP",
    "iata": "VVZ"
  },
  {
    "id": 32193,
    "name": "Ain Arnat Airport",
    "lat": 36.17810059,
    "lon": 5.32449007,
    "country": "DZ",
    "municipality": "Sétif",
    "icao": "DAAS",
    "iata": "QSF"
  },
  {
    "id": 2056,
    "name": "Aguenar – Hadj Bey Akhamok Airport",
    "lat": 22.811501,
    "lon": 5.45108,
    "country": "DZ",
    "municipality": "Tamanrasset",
    "icao": "DAAT",
    "iata": "TMR"
  },
  {
    "id": 2057,
    "name": "Jijel Ferhat Abbas Airport",
    "lat": 36.795101,
    "lon": 5.87361,
    "country": "DZ",
    "municipality": "Tahir",
    "icao": "DAAV",
    "iata": "GJL"
  },
  {
    "id": 2058,
    "name": "Mecheria Airport",
    "lat": 33.53590012,
    "lon": -0.2423530072,
    "country": "DZ",
    "municipality": "Mecheria",
    "icao": "DAAY",
    "iata": "MZW"
  },
  {
    "id": 2060,
    "name": "Annaba Rabah Bitat Airport",
    "lat": 36.826781,
    "lon": 7.81334,
    "country": "DZ",
    "municipality": "Annaba",
    "icao": "DABB",
    "iata": "AAE"
  },
  {
    "id": 2061,
    "name": "Mohamed Boudiaf International Airport",
    "lat": 36.27600098,
    "lon": 6.620389938,
    "country": "DZ",
    "municipality": "Constantine",
    "icao": "DABC",
    "iata": "CZL"
  },
  {
    "id": 2062,
    "name": "Cheikh Larbi Tébessi Airport",
    "lat": 35.43159866,
    "lon": 8.12071991,
    "country": "DZ",
    "municipality": "Tébessi",
    "icao": "DABS",
    "iata": "TEE"
  },
  {
    "id": 2063,
    "name": "Batna Mostefa Ben Boulaid Airport",
    "lat": 35.752102,
    "lon": 6.30859,
    "country": "DZ",
    "municipality": "Batna",
    "icao": "DABT",
    "iata": "BLJ"
  },
  {
    "id": 2064,
    "name": "Hassi R'Mel Airport",
    "lat": 32.930401,
    "lon": 3.31154,
    "country": "DZ",
    "municipality": "Hassi R'Mel",
    "icao": "DAFH",
    "iata": "HRM"
  },
  {
    "id": 2065,
    "name": "Abdelhafid Boussouf Bou Chekif Airport",
    "lat": 35.341099,
    "lon": 1.46315,
    "country": "DZ",
    "municipality": "Tiaret",
    "icao": "DAOB",
    "iata": "TID"
  },
  {
    "id": 2067,
    "name": "Tindouf Airport",
    "lat": 27.7003994,
    "lon": -8.167099953,
    "country": "DZ",
    "municipality": "Tindouf",
    "icao": "DAOF",
    "iata": "TIN"
  },
  {
    "id": 2068,
    "name": "Chlef Aboubakr Belkaid International Airport",
    "lat": 36.217166,
    "lon": 1.342237,
    "country": "DZ",
    "municipality": "Chlef",
    "icao": "DAOI",
    "iata": "CFK"
  },
  {
    "id": 2069,
    "name": "Oran Tafraoui Airport",
    "lat": 35.5424,
    "lon": -0.532278,
    "country": "DZ",
    "municipality": "Tafraoui",
    "icao": "DAOL",
    "iata": "TAF"
  },
  {
    "id": 2070,
    "name": "Zenata – Messali El Hadj Airport",
    "lat": 35.013426,
    "lon": -1.457191,
    "country": "DZ",
    "municipality": "Zenata",
    "icao": "DAON",
    "iata": "TLM"
  },
  {
    "id": 2071,
    "name": "Oran Es-Sénia (Ahmed Ben Bella) International Airport",
    "lat": 35.623901,
    "lon": -0.621183,
    "country": "DZ",
    "municipality": "Es-Sénia",
    "icao": "DAOO",
    "iata": "ORN"
  },
  {
    "id": 2072,
    "name": "Béchar Boudghene Ben Ali Lotfi Airport",
    "lat": 31.64570045,
    "lon": -2.269860029,
    "country": "DZ",
    "municipality": "Béchar",
    "icao": "DAOR",
    "iata": "CBH"
  },
  {
    "id": 2074,
    "name": "Ghriss Airport",
    "lat": 35.207699,
    "lon": 0.147142,
    "country": "DZ",
    "municipality": "Ghriss",
    "icao": "DAOV",
    "iata": "MUW"
  },
  {
    "id": 2075,
    "name": "Touat Cheikh Sidi Mohamed Belkebir Airport",
    "lat": 27.837601,
    "lon": -0.186414,
    "country": "DZ",
    "municipality": "Adrar",
    "icao": "DAUA",
    "iata": "AZR"
  },
  {
    "id": 2076,
    "name": "Biskra - Mohamed Khider Airport",
    "lat": 34.793301,
    "lon": 5.73823,
    "country": "DZ",
    "municipality": "Biskra",
    "icao": "DAUB",
    "iata": "BSK"
  },
  {
    "id": 2077,
    "name": "El Golea Airport",
    "lat": 30.580732,
    "lon": 2.861595,
    "country": "DZ",
    "municipality": "El Menia",
    "icao": "DAUE",
    "iata": "ELG"
  },
  {
    "id": 2078,
    "name": "Noumérat - Moufdi Zakaria Airport",
    "lat": 32.384102,
    "lon": 3.79411,
    "country": "DZ",
    "municipality": "El Atteuf",
    "icao": "DAUG",
    "iata": "GHA"
  },
  {
    "id": 2079,
    "name": "Hassi Messaoud-Oued Irara Krim Belkacem Airport",
    "lat": 31.673,
    "lon": 6.14044,
    "country": "DZ",
    "municipality": "Hassi Messaoud",
    "icao": "DAUH",
    "iata": "HME"
  },
  {
    "id": 2080,
    "name": "In Salah Airport",
    "lat": 27.250999,
    "lon": 2.51202,
    "country": "DZ",
    "municipality": "In Salah",
    "icao": "DAUI",
    "iata": "INZ"
  },
  {
    "id": 2081,
    "name": "Touggourt Sidi Madhi Airport",
    "lat": 33.067799,
    "lon": 6.08867,
    "country": "DZ",
    "municipality": "Touggourt",
    "icao": "DAUK",
    "iata": "TGR"
  },
  {
    "id": 2082,
    "name": "Laghouat - Molay Ahmed Medeghri Airport",
    "lat": 33.7644,
    "lon": 2.92834,
    "country": "DZ",
    "municipality": "Laghouat",
    "icao": "DAUL",
    "iata": "LOO"
  },
  {
    "id": 2083,
    "name": "Guemar Airport - مطار قمار بالوادي",
    "lat": 33.511398,
    "lon": 6.77679,
    "country": "DZ",
    "municipality": "Guemar",
    "icao": "DAUO",
    "iata": "ELU"
  },
  {
    "id": 2084,
    "name": "Timimoun Airport",
    "lat": 29.237101,
    "lon": 0.276033,
    "country": "DZ",
    "municipality": "Timimoun",
    "icao": "DAUT",
    "iata": "TMX"
  },
  {
    "id": 2085,
    "name": "Ain Beida Airport",
    "lat": 31.9172,
    "lon": 5.41278,
    "country": "DZ",
    "municipality": "Ouargla",
    "icao": "DAUU",
    "iata": "OGX"
  },
  {
    "id": 2086,
    "name": "Zarzaitine - In Aménas Airport",
    "lat": 28.0515,
    "lon": 9.64291,
    "country": "DZ",
    "municipality": "In Aménas",
    "icao": "DAUZ",
    "iata": "IAM"
  },
  {
    "id": 2087,
    "name": "Cadjehoun Airport",
    "lat": 6.357230186,
    "lon": 2.384350061,
    "country": "BJ",
    "municipality": "Cotonou",
    "icao": "DBBB",
    "iata": "COO"
  },
  {
    "id": 2088,
    "name": "Ouagadougou Airport",
    "lat": 12.3532,
    "lon": -1.51242,
    "country": "BF",
    "municipality": "Ouagadougou",
    "icao": "DFFD",
    "iata": "OUA"
  },
  {
    "id": 2089,
    "name": "Bobo Dioulasso Airport",
    "lat": 11.16009998,
    "lon": -4.33096981,
    "country": "BF",
    "municipality": "Bobo Dioulasso",
    "icao": "DFOO",
    "iata": "BOY"
  },
  {
    "id": 2090,
    "name": "Kotoka International Airport",
    "lat": 5.6051898,
    "lon": -0.1667860001,
    "country": "GH",
    "municipality": "Accra",
    "icao": "DGAA",
    "iata": "ACC"
  },
  {
    "id": 2091,
    "name": "Tamale Airport",
    "lat": 9.557189941,
    "lon": -0.863214016,
    "country": "GH",
    "municipality": "Tamale",
    "icao": "DGLE",
    "iata": "TML"
  },
  {
    "id": 2093,
    "name": "Kumasi Airport",
    "lat": 6.714560032,
    "lon": -1.590819955,
    "country": "GH",
    "municipality": "Kumasi",
    "icao": "DGSI",
    "iata": "KMS"
  },
  {
    "id": 2094,
    "name": "Sunyani Airport",
    "lat": 7.36183,
    "lon": -2.32876,
    "country": "GH",
    "municipality": "Sunyani",
    "icao": "DGSN",
    "iata": "NYI"
  },
  {
    "id": 2095,
    "name": "Takoradi Airport",
    "lat": 4.89605999,
    "lon": -1.774760008,
    "country": "GH",
    "municipality": "Sekondi-Takoradi",
    "icao": "DGTK",
    "iata": "TKD"
  },
  {
    "id": 2096,
    "name": "Félix-Houphouët-Boigny International Airport",
    "lat": 5.26139,
    "lon": -3.92629,
    "country": "CI",
    "municipality": "Abidjan",
    "icao": "DIAP",
    "iata": "ABJ"
  },
  {
    "id": 2097,
    "name": "Bouaké Airport",
    "lat": 7.7388,
    "lon": -5.07367,
    "country": "CI",
    "municipality": "Bouaké",
    "icao": "DIBK",
    "iata": "BYK"
  },
  {
    "id": 2098,
    "name": "Daloa Airport",
    "lat": 6.79281,
    "lon": -6.47319,
    "country": "CI",
    "municipality": "",
    "icao": "DIDL",
    "iata": "DJO"
  },
  {
    "id": 2099,
    "name": "Korhogo Airport",
    "lat": 9.38718,
    "lon": -5.55666,
    "country": "CI",
    "municipality": "Korhogo",
    "icao": "DIKO",
    "iata": "HGO"
  },
  {
    "id": 2100,
    "name": "Man Airport",
    "lat": 7.27207,
    "lon": -7.58736,
    "country": "CI",
    "municipality": "",
    "icao": "DIMN",
    "iata": "MJC"
  },
  {
    "id": 2101,
    "name": "San Pedro Airport",
    "lat": 4.74672,
    "lon": -6.66082,
    "country": "CI",
    "municipality": "",
    "icao": "DISP",
    "iata": "SPY"
  },
  {
    "id": 2102,
    "name": "Yamoussoukro Airport",
    "lat": 6.903170109,
    "lon": -5.365580082,
    "country": "CI",
    "municipality": "Yamoussoukro",
    "icao": "DIYO",
    "iata": "ASK"
  },
  {
    "id": 2104,
    "name": "Nnamdi Azikiwe International Airport",
    "lat": 9.00679,
    "lon": 7.26317,
    "country": "NG",
    "municipality": "Abuja",
    "icao": "DNAA",
    "iata": "ABV"
  },
  {
    "id": 309668,
    "name": "Akwa Ibom International Airport",
    "lat": 4.8725,
    "lon": 8.093,
    "country": "NG",
    "municipality": "Uyo",
    "icao": "DNAI",
    "iata": "QUO"
  },
  {
    "id": 2105,
    "name": "Akure Airport",
    "lat": 7.246739864,
    "lon": 5.301010132,
    "country": "NG",
    "municipality": "Akure",
    "icao": "DNAK",
    "iata": "AKR"
  },
  {
    "id": 300781,
    "name": "Asaba International Airport",
    "lat": 6.204167,
    "lon": 6.665278,
    "country": "NG",
    "municipality": "Asaba",
    "icao": "DNAS",
    "iata": "ABB"
  },
  {
    "id": 323056,
    "name": "Sir Abubakar Tafawa Balewa International Airport",
    "lat": 10.482833,
    "lon": 9.744,
    "country": "NG",
    "municipality": "Bauchi",
    "icao": "DNBC",
    "iata": "BCU"
  },
  {
    "id": 2106,
    "name": "Benin Airport",
    "lat": 6.316979885,
    "lon": 5.599500179,
    "country": "NG",
    "municipality": "Benin",
    "icao": "DNBE",
    "iata": "BNI"
  },
  {
    "id": 2107,
    "name": "Margaret Ekpo International Airport",
    "lat": 4.976019859,
    "lon": 8.347200394,
    "country": "NG",
    "municipality": "Calabar",
    "icao": "DNCA",
    "iata": "CBQ"
  },
  {
    "id": 2108,
    "name": "Akanu Ibiam International Airport",
    "lat": 6.474269867,
    "lon": 7.56196022,
    "country": "NG",
    "municipality": "Enegu",
    "icao": "DNEN",
    "iata": "ENU"
  },
  {
    "id": 44578,
    "name": "Gombe Lawanti International Airport",
    "lat": 10.298889,
    "lon": 10.9,
    "country": "NG",
    "municipality": "Gombe",
    "icao": "DNGO",
    "iata": "GMO"
  },
  {
    "id": 2110,
    "name": "Ibadan Airport",
    "lat": 7.362460136,
    "lon": 3.978329897,
    "country": "NG",
    "municipality": "Ibadan",
    "icao": "DNIB",
    "iata": "IBA"
  },
  {
    "id": 2111,
    "name": "Ilorin International Airport",
    "lat": 8.440210342,
    "lon": 4.493919849,
    "country": "NG",
    "municipality": "Ilorin",
    "icao": "DNIL",
    "iata": "ILR"
  },
  {
    "id": 2112,
    "name": "Sam Mbakwe International Airport",
    "lat": 5.427060127,
    "lon": 7.206029892,
    "country": "NG",
    "municipality": "Owerri",
    "icao": "DNIM",
    "iata": "QOW"
  },
  {
    "id": 2113,
    "name": "Yakubu Gowon Airport",
    "lat": 9.639829636,
    "lon": 8.869050026,
    "country": "NG",
    "municipality": "Jos",
    "icao": "DNJO",
    "iata": "JOS"
  },
  {
    "id": 2114,
    "name": "Kaduna Airport",
    "lat": 10.6960001,
    "lon": 7.320109844,
    "country": "NG",
    "municipality": "Kaduna",
    "icao": "DNKA",
    "iata": "KAD"
  },
  {
    "id": 2115,
    "name": "Mallam Aminu International Airport",
    "lat": 12.0476,
    "lon": 8.52462,
    "country": "NG",
    "municipality": "Kano",
    "icao": "DNKN",
    "iata": "KAN"
  },
  {
    "id": 2116,
    "name": "Maiduguri International Airport",
    "lat": 11.85529995,
    "lon": 13.08090019,
    "country": "NG",
    "municipality": "Maiduguri",
    "icao": "DNMA",
    "iata": "MIU"
  },
  {
    "id": 2117,
    "name": "Makurdi Airport",
    "lat": 7.70388,
    "lon": 8.61394,
    "country": "NG",
    "municipality": "Makurdi",
    "icao": "DNMK",
    "iata": "MDI"
  },
  {
    "id": 2118,
    "name": "Murtala Muhammed International Airport",
    "lat": 6.57737,
    "lon": 3.32116,
    "country": "NG",
    "municipality": "Lagos",
    "icao": "DNMM",
    "iata": "LOS"
  },
  {
    "id": 2119,
    "name": "Minna Airport",
    "lat": 9.652170181,
    "lon": 6.462259769,
    "country": "NG",
    "municipality": "Minna",
    "icao": "DNMN",
    "iata": "MXJ"
  },
  {
    "id": 2120,
    "name": "Port Harcourt International Airport",
    "lat": 5.015490055,
    "lon": 6.949590206,
    "country": "NG",
    "municipality": "Port Harcourt",
    "icao": "DNPO",
    "iata": "PHC"
  },
  {
    "id": 2121,
    "name": "Sadiq Abubakar III International Airport",
    "lat": 12.91629982,
    "lon": 5.207190037,
    "country": "NG",
    "municipality": "Sokoto",
    "icao": "DNSO",
    "iata": "SKO"
  },
  {
    "id": 32192,
    "name": "Warri Airport",
    "lat": 5.59821,
    "lon": 5.8187,
    "country": "NG",
    "municipality": "Okpe",
    "icao": "DNSU",
    "iata": "QRW"
  },
  {
    "id": 2122,
    "name": "Yola Airport",
    "lat": 9.25755024,
    "lon": 12.43039989,
    "country": "NG",
    "municipality": "Yola",
    "icao": "DNYO",
    "iata": "YOL"
  },
  {
    "id": 2123,
    "name": "Zaria Airport",
    "lat": 11.1302,
    "lon": 7.68581,
    "country": "NG",
    "municipality": "Zaria",
    "icao": "DNZA",
    "iata": "ZAR"
  },
  {
    "id": 2124,
    "name": "Maradi Airport",
    "lat": 13.5025,
    "lon": 7.12675,
    "country": "NE",
    "municipality": "Maradi",
    "icao": "DRRM",
    "iata": "MFQ"
  },
  {
    "id": 2125,
    "name": "Diori Hamani International Airport",
    "lat": 13.4815,
    "lon": 2.18361,
    "country": "NE",
    "municipality": "Niamey",
    "icao": "DRRN",
    "iata": "NIM"
  },
  {
    "id": 2126,
    "name": "Tahoua Airport",
    "lat": 14.8757,
    "lon": 5.26536,
    "country": "NE",
    "municipality": "Tahoua",
    "icao": "DRRT",
    "iata": "THZ"
  },
  {
    "id": 2127,
    "name": "Mano Dayak International Airport",
    "lat": 16.9659996,
    "lon": 8.000109673,
    "country": "NE",
    "municipality": "Agadez",
    "icao": "DRZA",
    "iata": "AJY"
  },
  {
    "id": 2130,
    "name": "Zinder Airport",
    "lat": 13.77900028,
    "lon": 8.98375988,
    "country": "NE",
    "municipality": "Zinder",
    "icao": "DRZR",
    "iata": "ZND"
  },
  {
    "id": 2131,
    "name": "Tabarka-Aïn Draham International Airport",
    "lat": 36.98,
    "lon": 8.87694,
    "country": "TN",
    "municipality": "Tabarka",
    "icao": "DTKA",
    "iata": "TBJ"
  },
  {
    "id": 2132,
    "name": "Monastir Habib Bourguiba International Airport",
    "lat": 35.7580986,
    "lon": 10.75469971,
    "country": "TN",
    "municipality": "Monastir",
    "icao": "DTMB",
    "iata": "MIR"
  },
  {
    "id": 44483,
    "name": "Enfidha - Hammamet International Airport",
    "lat": 36.075833,
    "lon": 10.438611,
    "country": "TN",
    "municipality": "Enfidha",
    "icao": "DTNH",
    "iata": "NBE"
  },
  {
    "id": 2133,
    "name": "Tunis Carthage International Airport",
    "lat": 36.851002,
    "lon": 10.2272,
    "country": "TN",
    "municipality": "Tunis",
    "icao": "DTTA",
    "iata": "TUN"
  },
  {
    "id": 2136,
    "name": "Gafsa Ksar International Airport",
    "lat": 34.42200089,
    "lon": 8.822500229,
    "country": "TN",
    "municipality": "Gafsa",
    "icao": "DTTF",
    "iata": "GAF"
  },
  {
    "id": 2137,
    "name": "Gabès Matmata International Airport",
    "lat": 33.733691,
    "lon": 9.91941,
    "country": "TN",
    "municipality": "Gabès",
    "icao": "DTTG",
    "iata": "GAE"
  },
  {
    "id": 2139,
    "name": "Djerba Zarzis International Airport",
    "lat": 33.875,
    "lon": 10.7755,
    "country": "TN",
    "municipality": "Mellita",
    "icao": "DTTJ",
    "iata": "DJE"
  },
  {
    "id": 2140,
    "name": "El Borma Airport",
    "lat": 31.7043,
    "lon": 9.25462,
    "country": "TN",
    "municipality": "El Borma",
    "icao": "DTTR",
    "iata": "EBM"
  },
  {
    "id": 2141,
    "name": "Sfax Thyna International Airport",
    "lat": 34.7179985,
    "lon": 10.69099998,
    "country": "TN",
    "municipality": "Sfax",
    "icao": "DTTX",
    "iata": "SFA"
  },
  {
    "id": 2142,
    "name": "Tozeur Nefta International Airport",
    "lat": 33.93970108,
    "lon": 8.110560417,
    "country": "TN",
    "municipality": "Tozeur",
    "icao": "DTTZ",
    "iata": "TOE"
  },
  {
    "id": 2143,
    "name": "Niamtougou International Airport",
    "lat": 9.76733017,
    "lon": 1.091249943,
    "country": "TG",
    "municipality": "Niamtougou",
    "icao": "DXNG",
    "iata": "LRL"
  },
  {
    "id": 2144,
    "name": "Lomé–Tokoin International Airport",
    "lat": 6.16561,
    "lon": 1.25451,
    "country": "TG",
    "municipality": "Lomé",
    "icao": "DXXX",
    "iata": "LFW"
  },
  {
    "id": 2152,
    "name": "Antwerp International Airport (Deurne)",
    "lat": 51.190667,
    "lon": 4.463153,
    "country": "BE",
    "municipality": "Antwerp",
    "icao": "EBAW",
    "iata": "ANR"
  },
  {
    "id": 2155,
    "name": "Brussels Airport",
    "lat": 50.901402,
    "lon": 4.48444,
    "country": "BE",
    "municipality": "Zaventem",
    "icao": "EBBR",
    "iata": "BRU"
  },
  {
    "id": 2157,
    "name": "Brussels South Charleroi Airport",
    "lat": 50.460982,
    "lon": 4.457158,
    "country": "BE",
    "municipality": "Charleroi",
    "icao": "EBCI",
    "iata": "CRL"
  },
  {
    "id": 2161,
    "name": "Flanders International Airport Kortrijk-Wevelgem",
    "lat": 50.818878,
    "lon": 3.209551,
    "country": "BE",
    "municipality": "Wevelgem",
    "icao": "EBKT",
    "iata": "KJK"
  },
  {
    "id": 2162,
    "name": "Liège Airport",
    "lat": 50.638574,
    "lon": 5.443897,
    "country": "BE",
    "municipality": "Grâce-Hollogne",
    "icao": "EBLG",
    "iata": "LGG"
  },
  {
    "id": 2163,
    "name": "Oostende-Brugge International Airport",
    "lat": 51.1998,
    "lon": 2.874673,
    "country": "BE",
    "municipality": "Oostende",
    "icao": "EBOS",
    "iata": "OST"
  },
  {
    "id": 2184,
    "name": "Leipzig–Altenburg Airport",
    "lat": 50.981945,
    "lon": 12.506389,
    "country": "DE",
    "municipality": "Nobitz",
    "icao": "EDAC",
    "iata": "AOC"
  },
  {
    "id": 2187,
    "name": "Heringsdorf Airport",
    "lat": 53.8787,
    "lon": 14.1523,
    "country": "DE",
    "municipality": "Zirchow",
    "icao": "EDAH",
    "iata": "HDF"
  },
  {
    "id": 2743,
    "name": "Neubrandenburg Trollenhagen Airport",
    "lat": 53.6022,
    "lon": 13.306,
    "country": "DE",
    "municipality": "Trollenhagen",
    "icao": "EDBN",
    "iata": "FNB"
  },
  {
    "id": 301881,
    "name": "Berlin Brandenburg Airport",
    "lat": 52.362247,
    "lon": 13.500672,
    "country": "DE",
    "municipality": "Berlin",
    "icao": "EDDB",
    "iata": "BER"
  },
  {
    "id": 2210,
    "name": "Dresden Airport",
    "lat": 51.134123,
    "lon": 13.767831,
    "country": "DE",
    "municipality": "Dresden",
    "icao": "EDDC",
    "iata": "DRS"
  },
  {
    "id": 2211,
    "name": "Erfurt-Weimar Airport",
    "lat": 50.979801,
    "lon": 10.9581,
    "country": "DE",
    "municipality": "Erfurt",
    "icao": "EDDE",
    "iata": "ERF"
  },
  {
    "id": 2212,
    "name": "Frankfurt Airport",
    "lat": 50.030241,
    "lon": 8.561096,
    "country": "DE",
    "municipality": "Frankfurt am Main",
    "icao": "EDDF",
    "iata": "FRA"
  },
  {
    "id": 2213,
    "name": "Münster Osnabrück Airport",
    "lat": 52.134602,
    "lon": 7.68483,
    "country": "DE",
    "municipality": "Greven",
    "icao": "EDDG",
    "iata": "FMO"
  },
  {
    "id": 2214,
    "name": "Hamburg Helmut Schmidt Airport",
    "lat": 53.630402,
    "lon": 9.98823,
    "country": "DE",
    "municipality": "Hamburg",
    "icao": "EDDH",
    "iata": "HAM"
  },
  {
    "id": 2216,
    "name": "Cologne Bonn Airport",
    "lat": 50.865898,
    "lon": 7.14274,
    "country": "DE",
    "municipality": "Köln (Cologne)",
    "icao": "EDDK",
    "iata": "CGN"
  },
  {
    "id": 2217,
    "name": "Düsseldorf Airport",
    "lat": 51.289501,
    "lon": 6.76678,
    "country": "DE",
    "municipality": "Düsseldorf",
    "icao": "EDDL",
    "iata": "DUS"
  },
  {
    "id": 2218,
    "name": "Munich Airport",
    "lat": 48.353802,
    "lon": 11.7861,
    "country": "DE",
    "municipality": "Munich",
    "icao": "EDDM",
    "iata": "MUC"
  },
  {
    "id": 2219,
    "name": "Nuremberg Airport",
    "lat": 49.498699,
    "lon": 11.078056,
    "country": "DE",
    "municipality": "Nuremberg",
    "icao": "EDDN",
    "iata": "NUE"
  },
  {
    "id": 2220,
    "name": "Leipzig/Halle Airport",
    "lat": 51.420657,
    "lon": 12.232705,
    "country": "DE",
    "municipality": "Schkeuditz",
    "icao": "EDDP",
    "iata": "LEJ"
  },
  {
    "id": 2221,
    "name": "Saarbrücken Airport",
    "lat": 49.21459961,
    "lon": 7.109509945,
    "country": "DE",
    "municipality": "Saarbrücken",
    "icao": "EDDR",
    "iata": "SCN"
  },
  {
    "id": 2222,
    "name": "Stuttgart Airport",
    "lat": 48.689899,
    "lon": 9.22196,
    "country": "DE",
    "municipality": "Stuttgart",
    "icao": "EDDS",
    "iata": "STR"
  },
  {
    "id": 2224,
    "name": "Hannover Airport",
    "lat": 52.461102,
    "lon": 9.68508,
    "country": "DE",
    "municipality": "Hannover",
    "icao": "EDDV",
    "iata": "HAJ"
  },
  {
    "id": 2225,
    "name": "Bremen Airport",
    "lat": 53.046786,
    "lon": 8.78932,
    "country": "DE",
    "municipality": "Bremen",
    "icao": "EDDW",
    "iata": "BRE"
  },
  {
    "id": 2227,
    "name": "Frankfurt-Hahn Airport",
    "lat": 49.9487,
    "lon": 7.26389,
    "country": "DE",
    "municipality": "Frankfurt am Main (Lautzenhausen)",
    "icao": "EDFH",
    "iata": "HHN"
  },
  {
    "id": 2228,
    "name": "Mannheim-City Airport",
    "lat": 49.473057,
    "lon": 8.514167,
    "country": "DE",
    "municipality": "Mannheim",
    "icao": "EDFM",
    "iata": "MHG"
  },
  {
    "id": 2232,
    "name": "Eisenach-Kindel Airport",
    "lat": 50.991604,
    "lon": 10.47973,
    "country": "DE",
    "municipality": "Hörselberg-Hainich",
    "icao": "EDGE",
    "iata": "EIB"
  },
  {
    "id": 2233,
    "name": "Siegerland Airport",
    "lat": 50.707699,
    "lon": 8.08297,
    "country": "DE",
    "municipality": "Burbach",
    "icao": "EDGS",
    "iata": "SGE"
  },
  {
    "id": 2234,
    "name": "Hamburg-Finkenwerder Airport",
    "lat": 53.53527832,
    "lon": 9.83555603,
    "country": "DE",
    "municipality": "Hamburg",
    "icao": "EDHI",
    "iata": "XFW"
  },
  {
    "id": 2235,
    "name": "Kiel-Holtenau Airport",
    "lat": 54.37957,
    "lon": 10.145266,
    "country": "DE",
    "municipality": "Kiel",
    "icao": "EDHK",
    "iata": "KEL"
  },
  {
    "id": 2236,
    "name": "Lübeck Blankensee Airport",
    "lat": 53.805401,
    "lon": 10.7192,
    "country": "DE",
    "municipality": "Lübeck",
    "icao": "EDHL",
    "iata": "LBC"
  },
  {
    "id": 2237,
    "name": "Memmingen Allgau Airport",
    "lat": 47.98880005,
    "lon": 10.23950005,
    "country": "DE",
    "municipality": "Memmingen",
    "icao": "EDJA",
    "iata": "FMM"
  },
  {
    "id": 2243,
    "name": "Mönchengladbach Airport",
    "lat": 51.230278,
    "lon": 6.504444,
    "country": "DE",
    "municipality": "Mönchengladbach",
    "icao": "EDLN",
    "iata": "MGL"
  },
  {
    "id": 2244,
    "name": "Paderborn Lippstadt Airport",
    "lat": 51.614101,
    "lon": 8.61632,
    "country": "DE",
    "municipality": "Büren",
    "icao": "EDLP",
    "iata": "PAD"
  },
  {
    "id": 2246,
    "name": "Weeze Airport",
    "lat": 51.60240173,
    "lon": 6.142169952,
    "country": "DE",
    "municipality": "Weeze",
    "icao": "EDLV",
    "iata": "NRN"
  },
  {
    "id": 2247,
    "name": "Dortmund Airport",
    "lat": 51.518299,
    "lon": 7.61224,
    "country": "DE",
    "municipality": "Dortmund",
    "icao": "EDLW",
    "iata": "DTM"
  },
  {
    "id": 2248,
    "name": "Augsburg Airport",
    "lat": 48.425278,
    "lon": 10.931667,
    "country": "DE",
    "municipality": "Augsburg",
    "icao": "EDMA",
    "iata": "AGB"
  },
  {
    "id": 2252,
    "name": "Oberpfaffenhofen Airport",
    "lat": 48.081402,
    "lon": 11.2831,
    "country": "DE",
    "municipality": "Weßling",
    "icao": "EDMO",
    "iata": "OBF"
  },
  {
    "id": 2256,
    "name": "Friedrichshafen Airport",
    "lat": 47.671299,
    "lon": 9.51149,
    "country": "DE",
    "municipality": "Friedrichshafen",
    "icao": "EDNY",
    "iata": "FDH"
  },
  {
    "id": 2261,
    "name": "Bayreuth Airport",
    "lat": 49.985001,
    "lon": 11.64,
    "country": "DE",
    "municipality": "Bindlach",
    "icao": "EDQD",
    "iata": "BYU"
  },
  {
    "id": 2263,
    "name": "Hof-Plauen Airport",
    "lat": 50.288544,
    "lon": 11.852876,
    "country": "DE",
    "municipality": "Hof",
    "icao": "EDQM",
    "iata": "HOQ"
  },
  {
    "id": 2270,
    "name": "Karlsruhe Baden-Baden Airport",
    "lat": 48.7794,
    "lon": 8.0805,
    "country": "DE",
    "municipality": "Rheinmünster",
    "icao": "EDSB",
    "iata": "FKB"
  },
  {
    "id": 2276,
    "name": "Lahr Airport",
    "lat": 48.369301,
    "lon": 7.82772,
    "country": "DE",
    "municipality": "Lahr/Schwarzwald",
    "icao": "EDTL",
    "iata": "LHA"
  },
  {
    "id": 2284,
    "name": "Braunschweig-Wolfsburg Airport",
    "lat": 52.319199,
    "lon": 10.5561,
    "country": "DE",
    "municipality": "Braunschweig",
    "icao": "EDVE",
    "iata": "BWE"
  },
  {
    "id": 2285,
    "name": "Kassel Airport",
    "lat": 51.420699,
    "lon": 9.392152,
    "country": "DE",
    "municipality": "Calden",
    "icao": "EDVK",
    "iata": "KSF"
  },
  {
    "id": 2296,
    "name": "Westerland Sylt Airport",
    "lat": 54.9132,
    "lon": 8.34047,
    "country": "DE",
    "municipality": "Sylt",
    "icao": "EDXW",
    "iata": "GWT"
  },
  {
    "id": 2298,
    "name": "Kärdla Airport",
    "lat": 58.99079895,
    "lon": 22.83069992,
    "country": "EE",
    "municipality": "Kärdla",
    "icao": "EEKA",
    "iata": "KDL"
  },
  {
    "id": 2299,
    "name": "Kuressaare Airport",
    "lat": 58.22990036,
    "lon": 22.5095005,
    "country": "EE",
    "municipality": "Kuressaare",
    "icao": "EEKE",
    "iata": "URE"
  },
  {
    "id": 2300,
    "name": "Pärnu Airport",
    "lat": 58.41899872,
    "lon": 24.4727993,
    "country": "EE",
    "municipality": "Pärnu",
    "icao": "EEPU",
    "iata": "EPU"
  },
  {
    "id": 2301,
    "name": "Lennart Meri Tallinn Airport",
    "lat": 59.413246,
    "lon": 24.83264,
    "country": "EE",
    "municipality": "Tallinn",
    "icao": "EETN",
    "iata": "TLL"
  },
  {
    "id": 2302,
    "name": "Tartu Airport",
    "lat": 58.307438,
    "lon": 26.686473,
    "country": "EE",
    "municipality": "Reola",
    "icao": "EETU",
    "iata": "TAY"
  },
  {
    "id": 2303,
    "name": "Enontekio Airport",
    "lat": 68.36260223,
    "lon": 23.42429924,
    "country": "FI",
    "municipality": "Enontekio",
    "icao": "EFET",
    "iata": "ENF"
  },
  {
    "id": 2305,
    "name": "Halli Airport",
    "lat": 61.856039,
    "lon": 24.786686,
    "country": "FI",
    "municipality": "Jämsä",
    "icao": "EFHA",
    "iata": "KEV"
  },
  {
    "id": 2307,
    "name": "Helsinki Vantaa Airport",
    "lat": 60.318363,
    "lon": 24.963341,
    "country": "FI",
    "municipality": "Helsinki (Vantaa)",
    "icao": "EFHK",
    "iata": "HEL"
  },
  {
    "id": 2313,
    "name": "Kitee Airport",
    "lat": 62.1661,
    "lon": 30.073601,
    "country": "FI",
    "municipality": "Kitee",
    "icao": "EFIT",
    "iata": "KTQ"
  },
  {
    "id": 2314,
    "name": "Ivalo Airport",
    "lat": 68.6072998,
    "lon": 27.40530014,
    "country": "FI",
    "municipality": "Ivalo",
    "icao": "EFIV",
    "iata": "IVL"
  },
  {
    "id": 2315,
    "name": "Joensuu Airport",
    "lat": 62.658815,
    "lon": 29.619398,
    "country": "FI",
    "municipality": "Joensuu",
    "icao": "EFJO",
    "iata": "JOE"
  },
  {
    "id": 2316,
    "name": "Jyväskylä Airport",
    "lat": 62.399502,
    "lon": 25.678301,
    "country": "FI",
    "municipality": "Jyväskylän Maalaiskunta",
    "icao": "EFJY",
    "iata": "JYV"
  },
  {
    "id": 2317,
    "name": "Kauhava Airfield",
    "lat": 63.127102,
    "lon": 23.051399,
    "country": "FI",
    "municipality": "Kauhava",
    "icao": "EFKA",
    "iata": "KAU"
  },
  {
    "id": 2318,
    "name": "Kemi-Tornio Airport",
    "lat": 65.77870178,
    "lon": 24.58209991,
    "country": "FI",
    "municipality": "Kemi / Tornio",
    "icao": "EFKE",
    "iata": "KEM"
  },
  {
    "id": 2319,
    "name": "Kajaani Airport",
    "lat": 64.2855,
    "lon": 27.6924,
    "country": "FI",
    "municipality": "Kajaani",
    "icao": "EFKI",
    "iata": "KAJ"
  },
  {
    "id": 2320,
    "name": "Kauhajoki Airfield",
    "lat": 62.463212,
    "lon": 22.390817,
    "country": "FI",
    "municipality": "Kauhajoki",
    "icao": "EFKJ",
    "iata": "KHJ"
  },
  {
    "id": 2321,
    "name": "Kokkola-Pietarsaari Airport",
    "lat": 63.721199,
    "lon": 23.143101,
    "country": "FI",
    "municipality": "Kokkola / Kruunupyy",
    "icao": "EFKK",
    "iata": "KOK"
  },
  {
    "id": 2324,
    "name": "Kuusamo Airport",
    "lat": 65.987602,
    "lon": 29.239401,
    "country": "FI",
    "municipality": "Kuusamo",
    "icao": "EFKS",
    "iata": "KAO"
  },
  {
    "id": 2325,
    "name": "Kittilä Airport",
    "lat": 67.7009964,
    "lon": 24.84679985,
    "country": "FI",
    "municipality": "Kittilä",
    "icao": "EFKT",
    "iata": "KTT"
  },
  {
    "id": 2326,
    "name": "Kuopio Airport",
    "lat": 63.007099,
    "lon": 27.7978,
    "country": "FI",
    "municipality": "Kuopio / Siilinjärvi",
    "icao": "EFKU",
    "iata": "KUO"
  },
  {
    "id": 2329,
    "name": "Lappeenranta Airport",
    "lat": 61.044601,
    "lon": 28.144743,
    "country": "FI",
    "municipality": "Lappeenranta",
    "icao": "EFLP",
    "iata": "LPP"
  },
  {
    "id": 2330,
    "name": "Mariehamn Airport",
    "lat": 60.1222,
    "lon": 19.898199,
    "country": "FI",
    "municipality": "Mariehamn",
    "icao": "EFMA",
    "iata": "MHQ"
  },
  {
    "id": 2332,
    "name": "Mikkeli Airport",
    "lat": 61.6866,
    "lon": 27.201799,
    "country": "FI",
    "municipality": "Mikkeli",
    "icao": "EFMI",
    "iata": "MIK"
  },
  {
    "id": 2334,
    "name": "Oulu Airport",
    "lat": 64.930099,
    "lon": 25.354601,
    "country": "FI",
    "municipality": "Oulu / Oulunsalo",
    "icao": "EFOU",
    "iata": "OUL"
  },
  {
    "id": 2336,
    "name": "Pori Airport",
    "lat": 61.4617,
    "lon": 21.799999,
    "country": "FI",
    "municipality": "Pori",
    "icao": "EFPO",
    "iata": "POR"
  },
  {
    "id": 2341,
    "name": "Rovaniemi Airport",
    "lat": 66.56479645,
    "lon": 25.83040047,
    "country": "FI",
    "municipality": "Rovaniemi",
    "icao": "EFRO",
    "iata": "RVN"
  },
  {
    "id": 2343,
    "name": "Savonlinna Airport",
    "lat": 61.9431,
    "lon": 28.945101,
    "country": "FI",
    "municipality": "Savonlinna",
    "icao": "EFSA",
    "iata": "SVL"
  },
  {
    "id": 2345,
    "name": "Seinäjoki Airport",
    "lat": 62.692101,
    "lon": 22.8323,
    "country": "FI",
    "municipality": "Seinäjoki / Ilmajoki",
    "icao": "EFSI",
    "iata": "SJY"
  },
  {
    "id": 2346,
    "name": "Sodankyla Airport",
    "lat": 67.39499664,
    "lon": 26.61910057,
    "country": "FI",
    "municipality": "Sodankyla",
    "icao": "EFSO",
    "iata": "SOT"
  },
  {
    "id": 2347,
    "name": "Tampere-Pirkkala Airport",
    "lat": 61.414101,
    "lon": 23.604401,
    "country": "FI",
    "municipality": "Tampere / Pirkkala",
    "icao": "EFTP",
    "iata": "TMP"
  },
  {
    "id": 2349,
    "name": "Turku Airport",
    "lat": 60.514099,
    "lon": 22.2628,
    "country": "FI",
    "municipality": "Turku",
    "icao": "EFTU",
    "iata": "TKU"
  },
  {
    "id": 2350,
    "name": "Utti Air Base",
    "lat": 60.8964,
    "lon": 26.9384,
    "country": "FI",
    "municipality": "Utti / Valkeala",
    "icao": "EFUT",
    "iata": "UTI"
  },
  {
    "id": 2351,
    "name": "Vaasa Airport",
    "lat": 63.050701,
    "lon": 21.762199,
    "country": "FI",
    "municipality": "Vaasa",
    "icao": "EFVA",
    "iata": "VAA"
  },
  {
    "id": 2352,
    "name": "Varkaus Airport",
    "lat": 62.171101,
    "lon": 27.868601,
    "country": "FI",
    "municipality": "Varkaus / Joroinen",
    "icao": "EFVR",
    "iata": "VRK"
  },
  {
    "id": 2353,
    "name": "Ylivieska Airfield",
    "lat": 64.054722,
    "lon": 24.725278,
    "country": "FI",
    "municipality": "Ylivieska",
    "icao": "EFYL",
    "iata": "YLI"
  },
  {
    "id": 2385,
    "name": "Belfast International Airport",
    "lat": 54.65750122,
    "lon": -6.215829849,
    "country": "GB",
    "municipality": "Belfast",
    "icao": "EGAA",
    "iata": "BFS"
  },
  {
    "id": 2386,
    "name": "Enniskillen/St Angelo Airport",
    "lat": 54.398274,
    "lon": -7.651179,
    "country": "GB",
    "municipality": "Enniskillen, Fermanagh and Omagh",
    "icao": "EGAB",
    "iata": "ENK"
  },
  {
    "id": 2387,
    "name": "George Best Belfast City Airport",
    "lat": 54.618099,
    "lon": -5.8725,
    "country": "GB",
    "municipality": "Belfast",
    "icao": "EGAC",
    "iata": "BHD"
  },
  {
    "id": 2388,
    "name": "City of Derry Airport",
    "lat": 55.0428009,
    "lon": -7.161109924,
    "country": "GB",
    "municipality": "Derry",
    "icao": "EGAE",
    "iata": "LDY"
  },
  {
    "id": 2389,
    "name": "Birmingham Airport",
    "lat": 52.453899,
    "lon": -1.74803,
    "country": "GB",
    "municipality": "Birmingham, West Midlands",
    "icao": "EGBB",
    "iata": "BHX"
  },
  {
    "id": 2390,
    "name": "Coventry Airport",
    "lat": 52.369701,
    "lon": -1.47972,
    "country": "GB",
    "municipality": "Coventry, West Midlands",
    "icao": "EGBE",
    "iata": "CVT"
  },
  {
    "id": 2392,
    "name": "Gloucestershire Airport",
    "lat": 51.89419937,
    "lon": -2.167220116,
    "country": "GB",
    "municipality": "Staverton",
    "icao": "EGBJ",
    "iata": "GLO"
  },
  {
    "id": 2398,
    "name": "Manchester Airport",
    "lat": 53.349375,
    "lon": -2.279521,
    "country": "GB",
    "municipality": "Manchester, Greater Manchester",
    "icao": "EGCC",
    "iata": "MAN"
  },
  {
    "id": 2410,
    "name": "RNAS Yeovilton",
    "lat": 51.009399,
    "lon": -2.63882,
    "country": "GB",
    "municipality": "Yeovil, Somerset",
    "icao": "EGDY",
    "iata": "YEO"
  },
  {
    "id": 2411,
    "name": "Campbeltown Airport",
    "lat": 55.43719864,
    "lon": -5.686389923,
    "country": "GB",
    "municipality": "Campbeltown",
    "icao": "EGEC",
    "iata": "CAL"
  },
  {
    "id": 29126,
    "name": "Eday Airport",
    "lat": 59.19060135,
    "lon": -2.772219896,
    "country": "GB",
    "municipality": "Eday",
    "icao": "EGED",
    "iata": "EOI"
  },
  {
    "id": 2414,
    "name": "Haverfordwest Airport",
    "lat": 51.83309937,
    "lon": -4.961110115,
    "country": "GB",
    "municipality": "Haverfordwest",
    "icao": "EGFE",
    "iata": "HAW"
  },
  {
    "id": 2415,
    "name": "Cardiff International Airport",
    "lat": 51.396702,
    "lon": -3.34333,
    "country": "GB",
    "municipality": "Cardiff",
    "icao": "EGFF",
    "iata": "CWL"
  },
  {
    "id": 2416,
    "name": "Swansea Airport",
    "lat": 51.601366,
    "lon": -4.071006,
    "country": "GB",
    "municipality": "Swansea",
    "icao": "EGFH",
    "iata": "SWS"
  },
  {
    "id": 2417,
    "name": "Bristol Airport",
    "lat": 51.382702,
    "lon": -2.71909,
    "country": "GB",
    "municipality": "Bristol",
    "icao": "EGGD",
    "iata": "BRS"
  },
  {
    "id": 2418,
    "name": "Liverpool John Lennon Airport",
    "lat": 53.333599,
    "lon": -2.84972,
    "country": "GB",
    "municipality": "Liverpool",
    "icao": "EGGP",
    "iata": "LPL"
  },
  {
    "id": 2419,
    "name": "London Luton Airport",
    "lat": 51.874699,
    "lon": -0.368333,
    "country": "GB",
    "municipality": "Luton, Bedfordshire",
    "icao": "EGGW",
    "iata": "LTN"
  },
  {
    "id": 2421,
    "name": "Bournemouth Airport",
    "lat": 50.780483,
    "lon": -1.839576,
    "country": "GB",
    "municipality": "Bournemouth",
    "icao": "EGHH",
    "iata": "BOH"
  },
  {
    "id": 2422,
    "name": "Southampton Airport",
    "lat": 50.950298,
    "lon": -1.3568,
    "country": "GB",
    "municipality": "Southampton",
    "icao": "EGHI",
    "iata": "SOU"
  },
  {
    "id": 2404,
    "name": "Cornwall Airport Newquay",
    "lat": 50.440601,
    "lon": -4.99541,
    "country": "GB",
    "municipality": "Newquay",
    "icao": "EGHQ",
    "iata": "NQY"
  },
  {
    "id": 2424,
    "name": "Alderney Airport",
    "lat": 49.706104,
    "lon": -2.21472,
    "country": "GG",
    "municipality": "Saint Anne",
    "icao": "EGJA",
    "iata": "ACI"
  },
  {
    "id": 2425,
    "name": "Guernsey Airport",
    "lat": 49.435001,
    "lon": -2.60197,
    "country": "GG",
    "municipality": "Saint Peter Port",
    "icao": "EGJB",
    "iata": "GCI"
  },
  {
    "id": 2426,
    "name": "Jersey Airport",
    "lat": 49.207901,
    "lon": -2.19551,
    "country": "JE",
    "municipality": "St. Peter",
    "icao": "EGJJ",
    "iata": "JER"
  },
  {
    "id": 2427,
    "name": "Brighton City Airport",
    "lat": 50.835602,
    "lon": -0.297222,
    "country": "GB",
    "municipality": "Brighton, East Sussex",
    "icao": "EGKA",
    "iata": "ESH"
  },
  {
    "id": 2428,
    "name": "London Biggin Hill Airport",
    "lat": 51.3307991,
    "lon": 0.03249999881,
    "country": "GB",
    "municipality": "London",
    "icao": "EGKB",
    "iata": "BQH"
  },
  {
    "id": 2429,
    "name": "London Gatwick Airport",
    "lat": 51.148771,
    "lon": -0.192089,
    "country": "GB",
    "municipality": "London",
    "icao": "EGKK",
    "iata": "LGW"
  },
  {
    "id": 2430,
    "name": "London City Airport",
    "lat": 51.505299,
    "lon": 0.055278,
    "country": "GB",
    "municipality": "London",
    "icao": "EGLC",
    "iata": "LCY"
  },
  {
    "id": 2431,
    "name": "Farnborough Airport",
    "lat": 51.275799,
    "lon": -0.776333,
    "country": "GB",
    "municipality": "Farnborough, Hampshire",
    "icao": "EGLF",
    "iata": "FAB"
  },
  {
    "id": 2433,
    "name": "Blackbushe Airport",
    "lat": 51.323898,
    "lon": -0.8475,
    "country": "GB",
    "municipality": "Camberley, Surrey",
    "icao": "EGLK",
    "iata": "BBS"
  },
  {
    "id": 2434,
    "name": "London Heathrow Airport",
    "lat": 51.4706,
    "lon": -0.461941,
    "country": "GB",
    "municipality": "London",
    "icao": "EGLL",
    "iata": "LHR"
  },
  {
    "id": 2435,
    "name": "London Southend Airport",
    "lat": 51.570562,
    "lon": 0.693627,
    "country": "GB",
    "municipality": "Southend-on-Sea, Essex",
    "icao": "EGMC",
    "iata": "SEN"
  },
  {
    "id": 2436,
    "name": "Lydd London Ashford Airport",
    "lat": 50.956246,
    "lon": 0.939074,
    "country": "GB",
    "municipality": "Romney Marsh, Kent",
    "icao": "EGMD",
    "iata": "LYX"
  },
  {
    "id": 2439,
    "name": "Carlisle Lake District Airport",
    "lat": 54.9375,
    "lon": -2.80917,
    "country": "GB",
    "municipality": "Carlisle, Cumbria",
    "icao": "EGNC",
    "iata": "CAX"
  },
  {
    "id": 2441,
    "name": "Blackpool Airport",
    "lat": 53.771702,
    "lon": -3.02861,
    "country": "GB",
    "municipality": "Blackpool",
    "icao": "EGNH",
    "iata": "BLK"
  },
  {
    "id": 2442,
    "name": "Humberside Airport",
    "lat": 53.576152,
    "lon": -0.34954,
    "country": "GB",
    "municipality": "Grimsby, Lincolnshire",
    "icao": "EGNJ",
    "iata": "HUY"
  },
  {
    "id": 2443,
    "name": "Barrow Walney Island Airport",
    "lat": 54.1286111,
    "lon": -3.2675,
    "country": "GB",
    "municipality": "Barrow-in-Furness",
    "icao": "EGNL",
    "iata": "BWF"
  },
  {
    "id": 2444,
    "name": "Leeds Bradford Airport",
    "lat": 53.865898,
    "lon": -1.66057,
    "country": "GB",
    "municipality": "Leeds, West Yorkshire",
    "icao": "EGNM",
    "iata": "LBA"
  },
  {
    "id": 2445,
    "name": "Warton Aerodrome",
    "lat": 53.745098,
    "lon": -2.88306,
    "country": "GB",
    "municipality": "Warton",
    "icao": "EGNO",
    "iata": "WRT"
  },
  {
    "id": 2446,
    "name": "Hawarden Airport",
    "lat": 53.178101,
    "lon": -2.97778,
    "country": "GB",
    "municipality": "Broughton",
    "icao": "EGNR",
    "iata": "CEG"
  },
  {
    "id": 2447,
    "name": "Isle of Man Airport",
    "lat": 54.083302,
    "lon": -4.62389,
    "country": "IM",
    "municipality": "Castletown",
    "icao": "EGNS",
    "iata": "IOM"
  },
  {
    "id": 2448,
    "name": "Newcastle International Airport",
    "lat": 55.037958,
    "lon": -1.689577,
    "country": "GB",
    "municipality": "Newcastle upon Tyne, Tyne and Wear",
    "icao": "EGNT",
    "iata": "NCL"
  },
  {
    "id": 2449,
    "name": "Teesside International Airport",
    "lat": 54.509201,
    "lon": -1.42941,
    "country": "GB",
    "municipality": "Darlington, Durham",
    "icao": "EGNV",
    "iata": "MME"
  },
  {
    "id": 2450,
    "name": "East Midlands Airport",
    "lat": 52.8311,
    "lon": -1.32806,
    "country": "GB",
    "municipality": "Nottingham",
    "icao": "EGNX",
    "iata": "EMA"
  },
  {
    "id": 2454,
    "name": "Anglesey Airport",
    "lat": 53.2481,
    "lon": -4.53534,
    "country": "GB",
    "municipality": "Angelsey",
    "icao": "EGOV",
    "iata": "VLY"
  },
  {
    "id": 2456,
    "name": "Kirkwall Airport",
    "lat": 58.95780182,
    "lon": -2.904999971,
    "country": "GB",
    "municipality": "Orkney Islands",
    "icao": "EGPA",
    "iata": "KOI"
  },
  {
    "id": 2457,
    "name": "Sumburgh Airport",
    "lat": 59.878899,
    "lon": -1.29556,
    "country": "GB",
    "municipality": "Lerwick, Shetland",
    "icao": "EGPB",
    "iata": "LSI"
  },
  {
    "id": 2458,
    "name": "Wick John O'Groats Airport",
    "lat": 58.4589,
    "lon": -3.09306,
    "country": "GB",
    "municipality": "Wick",
    "icao": "EGPC",
    "iata": "WIC"
  },
  {
    "id": 2459,
    "name": "Aberdeen International Airport",
    "lat": 57.2019,
    "lon": -2.19778,
    "country": "GB",
    "municipality": "Aberdeen",
    "icao": "EGPD",
    "iata": "ABZ"
  },
  {
    "id": 2460,
    "name": "Inverness Airport",
    "lat": 57.54249954,
    "lon": -4.047500134,
    "country": "GB",
    "municipality": "Inverness",
    "icao": "EGPE",
    "iata": "INV"
  },
  {
    "id": 2461,
    "name": "Glasgow Airport",
    "lat": 55.871899,
    "lon": -4.43306,
    "country": "GB",
    "municipality": "Glasgow",
    "icao": "EGPF",
    "iata": "GLA"
  },
  {
    "id": 2462,
    "name": "Edinburgh Airport",
    "lat": 55.950145,
    "lon": -3.372288,
    "country": "GB",
    "municipality": "Edinburgh",
    "icao": "EGPH",
    "iata": "EDI"
  },
  {
    "id": 2463,
    "name": "Islay Airport",
    "lat": 55.682708,
    "lon": -6.257525,
    "country": "GB",
    "municipality": "Isle of Islay, Argyll and Bute",
    "icao": "EGPI",
    "iata": "ILY"
  },